[
  {
    "Name": "49 Degrees North",
    "Summit_Height": 5774,
    "Base_Height": 3931,
    "Number_of_Trails": 82,
    "Number_of_Lifts": 7,
    "Number_of_Parks": 1,
    "Trail_Map": "49DegreesNorthTrails.jpg",
    "Photos": "",
    "Logo": "49DegreesLogo.png",
    "Address": "3311 Flowery Trail Rd, Chewelah, WA 99109",
    "Latitude": 48.301121,
    "Longitude": -117.562937,
    "Website": "http://www.ski49n.com/"
  },
  {
    "Name": "Afton Alps",
    "Summit_Height": 1530,
    "Base_Height": 1180,
    "Number_of_Trails": 48,
    "Number_of_Lifts": 22,
    "Number_of_Parks": 5,
    "Trail_Map": "AftonAlpsTrails.jpg",
    "Photos": "",
    "Logo": "AftonAlpsLogo.png",
    "Address": "6600 Peller Ave S, Hastings, MN 55033",
    "Latitude": 44.854467,
    "Longitude": -92.790698,
    "Website": "http://www.aftonalps.com/"
  },
  {
    "Name": "Alpental",
    "Summit_Height": 5420,
    "Base_Height": 3140,
    "Number_of_Trails": 24,
    "Number_of_Lifts": 5,
    "Number_of_Parks": "none",
    "Trail_Map": "AlpentalTrailMap.jpg",
    "Photos": "",
    "Logo": "AlpentalLogo.png",
    "Address": "1001 WA-906, Snoqualmie Pass, WA 98068",
    "Latitude": 47.4086,
    "Longitude": -121.410071,
    "Website": "http://www.summitatsnoqualmie.com/mountains/alpental"
  },
  {
    "Name": "Alpine Valley",
    "Summit_Height": 1500,
    "Base_Height": 1260,
    "Number_of_Trails": 11,
    "Number_of_Lifts": 5,
    "Number_of_Parks": 1,
    "Trail_Map": "AlpineValleyTrails.jpg",
    "Photos": "",
    "Logo": "AlpineValleyLogo.png",
    "Address": "10620 Mayfield Rd, Chesterland, OH 44026",
    "Latitude": 41.52687,
    "Longitude": -81.259745,
    "Website": "http://www.alpinevalleyohio.com/"
  },
  {
    "Name": "Alpine Valley Resort",
    "Summit_Height": 1260,
    "Base_Height": 1020,
    "Number_of_Trails": 21,
    "Number_of_Lifts": 13,
    "Number_of_Parks": 3,
    "Trail_Map": "AlpineValleyResortTrails.jpg",
    "Photos": "",
    "Logo": "AlpineValleyResortLogo.png",
    "Address": "W2501 County Road D, Elkhorn, WI 53121",
    "Latitude": 42.735825,
    "Longitude": -88.42805,
    "Website": "http://www.alpinevalleyresort.com/"
  },
  {
    "Name": "Alta Ski Area",
    "Summit_Height": 10550,
    "Base_Height": 8529,
    "Number_of_Trails": 116,
    "Number_of_Lifts": 11,
    "Number_of_Parks": "none",
    "Trail_Map": "AltaTrails.jpg",
    "Photos": "",
    "Logo": "AltaLogo.jpg",
    "Address": "UT-210, Alta, UT 84092",
    "Latitude": 40.589832,
    "Longitude": -111.638338,
    "Website": "http://www.alta.com/"
  },
  {
    "Name": "Alyeska Resort",
    "Summit_Height": 2750,
    "Base_Height": 250,
    "Number_of_Trails": 76,
    "Number_of_Lifts": 7,
    "Number_of_Parks": 2,
    "Trail_Map": "AlyeskaTrails.jpg",
    "Photos": "",
    "Logo": "AlyeskaLogo.png",
    "Address": "1000 Arlberg Ave, Girdwood, AK 99587",
    "Latitude": 60.970445,
    "Longitude": -149.098719,
    "Website": "http://www.alyeskaresort.com/"
  },
  {
    "Name": "Andes Tower Hills Ski Area",
    "Summit_Height": 1620,
    "Base_Height": 1330,
    "Number_of_Trails": 16,
    "Number_of_Lifts": 5,
    "Number_of_Parks": 2,
    "Trail_Map": "AndesTowerHillsTrails.jpg",
    "Photos": "",
    "Logo": "AndesTowerHillsLogo.png",
    "Address": "4505 Andes Rd SW, Kensington, MN 56343",
    "Latitude": 45.850975,
    "Longitude": -95.630497,
    "Website": "https://www.andestowerhills.com/"
  },
  {
    "Name": "Angel Fire Resort",
    "Summit_Height": 10677,
    "Base_Height": 8600,
    "Number_of_Trails": 81,
    "Number_of_Lifts": 7,
    "Number_of_Parks": 3,
    "Trail_Map": "AngelFireTrails.jpg",
    "Photos": "",
    "Logo": "AngelFireResortLogo.jpg",
    "Address": "10 Miller Ln, Angel Fire, NM 87710",
    "Latitude": 36.387674,
    "Longitude": -105.273281,
    "Website": "https://www.angelfireresort.com/"
  },
  {
    "Name": "Anthony Lakes Mountain Resort",
    "Summit_Height": 8000,
    "Base_Height": 7100,
    "Number_of_Trails": 21,
    "Number_of_Lifts": 3,
    "Number_of_Parks": 2,
    "Trail_Map": "AnthonyLakesTrails.jpg",
    "Photos": "",
    "Logo": "AnthonyLakesLogo.jpg",
    "Address": "47500 Anthony Lakes Hwy, North powder, OR 97867",
    "Latitude": 44.999366,
    "Longitude": -118.054245,
    "Website": "http://anthonylakes.com/"
  },
  {
    "Name": "Appalachian Ski Mountain",
    "Summit_Height": 4000,
    "Base_Height": 3635,
    "Number_of_Trails": 12,
    "Number_of_Lifts": 5,
    "Number_of_Parks": 3,
    "Trail_Map": "AppalachianSkiTrails.jpg",
    "Photos": "",
    "Logo": "AppalachianSkiMountainLogo.jpg",
    "Address": "940 Ski Mountain Road, Blowing Rock, NC 28605",
    "Latitude": 36.17441,
    "Longitude": -81.662557,
    "Website": "http://www.appskimtn.com/"
  },
  {
    "Name": "Apple Mountain",
    "Summit_Height": 820,
    "Base_Height": 600,
    "Number_of_Trails": 12,
    "Number_of_Lifts": 6,
    "Number_of_Parks": "none",
    "Trail_Map": "",
    "Photos": "",
    "Logo": "AppleLogo.jpg",
    "Address": "4519 N River Rd, Freeland, MI 48623",
    "Latitude": 43.472618,
    "Longitude": -84.101799,
    "Website": "http://applemountain.com/"
  },
  {
    "Name": "Arapahoe Basin Ski Area",
    "Summit_Height": 13050,
    "Base_Height": 10779,
    "Number_of_Trails": 109,
    "Number_of_Lifts": 8,
    "Number_of_Parks": 3,
    "Trail_Map": "ArapahoeTrails1.jpg",
    "Photos": "",
    "Logo": "ArapahoeBasinLogo.jpg",
    "Address": "28194 US-6, Keystone, CO 80435",
    "Latitude": 39.642585,
    "Longitude": -105.871806,
    "Website": "http://arapahoebasin.com/Abasin/Default.aspx"
  },
  {
    "Name": "Arizona Snowbowl",
    "Summit_Height": 11500,
    "Base_Height": 9200,
    "Number_of_Trails": 45,
    "Number_of_Lifts": 8,
    "Number_of_Parks": 3,
    "Trail_Map": "ArizonaSnowbowlTrails.jpg",
    "Photos": "",
    "Logo": "ASnowbowlLogo.png",
    "Address": "9300 N Snow Bowl Rd, Flagstaff, AZ 86001",
    "Latitude": 35.330919,
    "Longitude": -111.710225,
    "Website": "https://www.arizonasnowbowl.com/"
  },
  {
    "Name": "Aspen / Snowmass",
    "Summit_Height": 12510,
    "Base_Height": 7879,
    "Number_of_Trails": 329,
    "Number_of_Lifts": 43,
    "Number_of_Parks": 3,
    "Trail_Map": "Aspen/SnowmassTrails.jpg",
    "Photos": "",
    "Logo": "AspenLogo.jpg",
    "Address": "45 Village Square, Snowmass Village, CO 81615",
    "Latitude": 39.205126,
    "Longitude": -106.947416,
    "Website": "https://www.aspensnowmass.com/"
  },
  {
    "Name": "Attitash",
    "Summit_Height": 2350,
    "Base_Height": 600,
    "Number_of_Trails": 68,
    "Number_of_Lifts": 11,
    "Number_of_Parks": 3,
    "Trail_Map": "AttitashTrails.jpg",
    "Photos": "",
    "Logo": "AttitashLogo.jpg",
    "Address": "775 US-302, Bartlett, NH 03812",
    "Latitude": 44.08259,
    "Longitude": -71.229678,
    "Website": "https://www.attitash.com/"
  },
  {
    "Name": "Bear Creek Mountain Resort",
    "Summit_Height": 1100,
    "Base_Height": 600,
    "Number_of_Trails": 23,
    "Number_of_Lifts": 6,
    "Number_of_Parks": 3,
    "Trail_Map": "BearCreekTrails.jpg",
    "Photos": "",
    "Logo": "BearCreekLogo.jpeg",
    "Address": "101 Doe Mountain Ln, Macungie, PA 18062",
    "Latitude": 40.476532,
    "Longitude": -75.625625,
    "Website": "http://www.bcmountainresort.com/"
  },
  {
    "Name": "Big Bear Mountain",
    "Summit_Height": 8804,
    "Base_Height": 7139,
    "Number_of_Trails": 38,
    "Number_of_Lifts": 13,
    "Number_of_Parks": 2,
    "Trail_Map": "BearMountainTrails.jpg",
    "Photos": "",
    "Logo": "BigBearLogo.png",
    "Address": "3101 Goldmine Dr, Big Bear Lake, CA 92315",
    "Latitude": 34.228782,
    "Longitude": -116.85992,
    "Website": "https://www.bigbearmountainresort.com/"
  },
  {
    "Name": "Bear Valley",
    "Summit_Height": 8500,
    "Base_Height": 6600,
    "Number_of_Trails": 75,
    "Number_of_Lifts": 10,
    "Number_of_Parks": 3,
    "Trail_Map": "BearValleyTrails.jpg",
    "Photos": "",
    "Logo": "BearValleyLogo.jpg",
    "Address": "2280 State Route 207, Bear Valley, CA 95223",
    "Latitude": 38.492605,
    "Longitude": -120.044266,
    "Website": "http://www.bearvalley.com/"
  },
  {
    "Name": "Beaver Creek",
    "Summit_Height": 11439,
    "Base_Height": 8100,
    "Number_of_Trails": 150,
    "Number_of_Lifts": 25,
    "Number_of_Parks": 3,
    "Trail_Map": "BeaverCreekTrails.jpg",
    "Photos": "",
    "Logo": "BeaverCreekLogo.jpg",
    "Address": "38320 U.S. 24, Avon, CO 81657",
    "Latitude": 39.597725,
    "Longitude": -106.434386,
    "Website": "http://www.beavercreek.com/"
  },
  {
    "Name": "Beech Mountain Resort",
    "Summit_Height": 5504,
    "Base_Height": 4675,
    "Number_of_Trails": 15,
    "Number_of_Lifts": 7,
    "Number_of_Parks": 1,
    "Trail_Map": "BeechTrails.jpg",
    "Photos": "",
    "Logo": "BeechMountainLogo.png",
    "Address": "1007 Beech Mountain Pkwy, Beech Mountain, NC 28604",
    "Latitude": 36.194678,
    "Longitude": -81.877995,
    "Website": "https://www.beechmountainresort.com/"
  },
  {
    "Name": "Bellayre",
    "Summit_Height": 3429,
    "Base_Height": 2025,
    "Number_of_Trails": 50,
    "Number_of_Lifts": 8,
    "Number_of_Parks": 2,
    "Trail_Map": "BellayreTrails.jpg",
    "Photos": "",
    "Logo": "bellayreLogo.jpg",
    "Address": "181 Galli Curci Rd, Highmount, NY 12441",
    "Latitude": 42.132245,
    "Longitude": -74.505312,
    "Website": "http://www.belleayre.com/"
  },
  {
    "Name": "Berkshire East",
    "Summit_Height": 1720,
    "Base_Height": 540,
    "Number_of_Trails": 44,
    "Number_of_Lifts": 6,
    "Number_of_Parks": 2,
    "Trail_Map": "BerkshireEastTrails.jpg",
    "Photos": "",
    "Logo": "BerkshireEastLogo.jpg",
    "Address": "66 Thunder Mountain Rd, Charlemont, MA 01339",
    "Latitude": 42.620961,
    "Longitude": -72.87702,
    "Website": "http://berkshireeast.com/"
  },
  {
    "Name": "Big Boulder",
    "Summit_Height": 2175,
    "Base_Height": 1700,
    "Number_of_Trails": 16,
    "Number_of_Lifts": 8,
    "Number_of_Parks": 8,
    "Trail_Map": "BigBoulderTrails.jpg",
    "Photos": "",
    "Logo": "JFBB.png",
    "Address": "434 Jack Frost Mountain Rd, White Haven, PA 18661",
    "Latitude": 41.110006,
    "Longitude": -75.65123,
    "Website": "https://www.jfbb.com/"
  },
  {
    "Name": "Big PowderhornMountain",
    "Summit_Height": 1800,
    "Base_Height": 1200,
    "Number_of_Trails": 33,
    "Number_of_Lifts": 10,
    "Number_of_Parks": 2,
    "Trail_Map": "BigPowderhornTrails.jpg",
    "Photos": "",
    "Logo": "BigPowderhornLogo.jpg",
    "Address": "11375 Powderhorn Rd, Bessemer, MI 49911",
    "Latitude": 46.510011,
    "Longitude": -90.09395,
    "Website": "http://www.bigpowderhorn.net/"
  },
  {
    "Name": "Big Sky Resort",
    "Summit_Height": 11166,
    "Base_Height": 6800,
    "Number_of_Trails": 306,
    "Number_of_Lifts": 34,
    "Number_of_Parks": 7,
    "Trail_Map": "BigSkyResortTrails.jpg",
    "Photos": "",
    "Logo": "BigSkyLogo.jpg",
    "Address": "50 Big Sky Resort Rd, Big Sky, MT 59716",
    "Latitude": 45.283436,
    "Longitude": -111.400368,
    "Website": "http://bigskyresort.com/"
  },
  {
    "Name": "Big Snow Resort - Blackjack",
    "Summit_Height": 850,
    "Base_Height": 385,
    "Number_of_Trails": 25,
    "Number_of_Lifts": 6,
    "Number_of_Parks": 2,
    "Trail_Map": "BigSnowResortTrails.jpg",
    "Photos": "",
    "Logo": "BigSnowLogo.png",
    "Address": "500 Indianhead Rd, Wakefield, MI 49968",
    "Latitude": 46.500282,
    "Longitude": -89.970917,
    "Website": "http://www.bigsnow.com/"
  },
  {
    "Name": "Big Snow Resort - Indianhead",
    "Summit_Height": 1935,
    "Base_Height": 1297,
    "Number_of_Trails": 32,
    "Number_of_Lifts": 9,
    "Number_of_Parks": 1,
    "Trail_Map": "BigSnowResortTrails.jpg",
    "Photos": "",
    "Logo": "BigSnowLogo.png",
    "Address": "500 Indianhead Rd, Wakefield, MI 49968",
    "Latitude": 46.500282,
    "Longitude": -89.970917,
    "Website": "http://www.bigsnow.com/"
  },
  {
    "Name": "Big Squaw Mountain Ski Resort",
    "Summit_Height": 3200,
    "Base_Height": 1750,
    "Number_of_Trails": 29,
    "Number_of_Lifts": 1,
    "Number_of_Parks": "none",
    "Trail_Map": "BigSquawTrails.jpg",
    "Photos": "",
    "Logo": "BigSquawlogo.png",
    "Address": "447 Ski Resort Rd, Greenville Junction, ME 04442",
    "Latitude": 45.507314,
    "Longitude": -69.700152,
    "Website": "http://skibigsquaw.com/"
  },
  {
    "Name": "Bittersweet Ski Area",
    "Summit_Height": 850,
    "Base_Height": 450,
    "Number_of_Trails": 20,
    "Number_of_Lifts": 12,
    "Number_of_Parks": 2,
    "Trail_Map": "BittersweetTrails.jpg",
    "Photos": "",
    "Logo": "BittersweetLogo.jpg",
    "Address": "600 River Rd, Otsego, MI 49078",
    "Latitude": 42.467196,
    "Longitude": -85.758653,
    "Website": "http://www.skibittersweet.com/pages/home.cfm"
  },
  {
    "Name": "Black Mountain Ski Area",
    "Summit_Height": 2350,
    "Base_Height": 1250,
    "Number_of_Trails": 45,
    "Number_of_Lifts": 5,
    "Number_of_Parks": "none",
    "Trail_Map": "BlackMountainTrails.jpg",
    "Photos": "",
    "Logo": "BlackMountainLogo.JPG",
    "Address": "373 Black Mountain Rd, Jackson, NH 03846",
    "Latitude": 44.166681,
    "Longitude": -71.163732,
    "Website": "http://www.blackmt.com/"
  },
  {
    "Name": "Blacktail Mountain Ski Area",
    "Summit_Height": 6675,
    "Base_Height": 5235,
    "Number_of_Trails": 25,
    "Number_of_Lifts": 4,
    "Number_of_Parks": "none",
    "Trail_Map": "BlacktailMountainTrails.jpg",
    "Photos": "",
    "Logo": "BlacktailMountainLogo.jpg",
    "Address": "3990 Blacktail Rd, Lakeside, MT 59922",
    "Latitude": 48.001271,
    "Longitude": -114.300587,
    "Website": "http://www.blacktailmountain.com/"
  },
  {
    "Name": "Blandford Ski Area",
    "Summit_Height": 1685,
    "Base_Height": 1035,
    "Number_of_Trails": 29,
    "Number_of_Lifts": 5,
    "Number_of_Parks": 2,
    "Trail_Map": "BlandfordSkiTrails.jpg",
    "Photos": "",
    "Logo": "BlandfordSkiLogo.jpg",
    "Address": "41 2nd Division Rd, Blandford, MA 01008",
    "Latitude": 42.193932,
    "Longitude": -72.908334,
    "Website": "http://skiblandford.org/"
  },
  {
    "Name": "Blue Hills Ski Area",
    "Summit_Height": 635,
    "Base_Height": 326,
    "Number_of_Trails": 16,
    "Number_of_Lifts": 4,
    "Number_of_Parks": 1,
    "Trail_Map": "BlueHillsTrails.png",
    "Photos": "",
    "Logo": "BlueHillsLogo.jpg",
    "Address": "4001 Washington St, Canton, MA 02021",
    "Latitude": 42.215357,
    "Longitude": -71.119275,
    "Website": "https://www.bluehillsboston.com/"
  },
  {
    "Name": "Blue Knob",
    "Summit_Height": 3146,
    "Base_Height": 2073,
    "Number_of_Trails": 34,
    "Number_of_Lifts": 5,
    "Number_of_Parks": 1,
    "Trail_Map": "BlueKnobTrails.jpg",
    "Photos": "",
    "Logo": "BlueKnobLogo.jpg",
    "Address": "1424 Overland Pass, Claysburg, PA 16625",
    "Latitude": 40.296718,
    "Longitude": -78.543401,
    "Website": "http://blueknob.com/"
  },
  {
    "Name": "Blue Mountain Resort",
    "Summit_Height": 1600,
    "Base_Height": 460,
    "Number_of_Trails": 39,
    "Number_of_Lifts": 16,
    "Number_of_Parks": 6,
    "Trail_Map": "BlueMountainTrails.jpg",
    "Photos": "",
    "Logo": "BlueMountainlogo.jpg",
    "Address": "1660 Blue Mountain Drive, Palmerton, PA 18071",
    "Latitude": 40.810825,
    "Longitude": -75.520569,
    "Website": "https://www.skibluemt.com/"
  },
  {
    "Name": "Bluewood",
    "Summit_Height": 5679,
    "Base_Height": 4545,
    "Number_of_Trails": 24,
    "Number_of_Lifts": 3,
    "Number_of_Parks": 2,
    "Trail_Map": "BluewoodTrails.jpg",
    "Photos": "",
    "Logo": "BluewoodLogo.jpg",
    "Address": "2000 N Touchet Rd, Dayton, WA 99328",
    "Latitude": 46.091725,
    "Longitude": -117.853546,
    "Website": "http://www.bluewood.com/"
  },
  {
    "Name": "Bogus Basin",
    "Summit_Height": 7581,
    "Base_Height": 5800,
    "Number_of_Trails": 91,
    "Number_of_Lifts": 7,
    "Number_of_Parks": 3,
    "Trail_Map": "BogusBasinTrails.jpg",
    "Photos": "",
    "Logo": "BogusLogo.png",
    "Address": "2600 N Bogus Basin Rd, Boise, Idaho 83702",
    "Latitude": 43.643391,
    "Longitude": -116.205899,
    "Website": "http://bogusbasin.org/"
  },
  {
    "Name": "Bolton Valley",
    "Summit_Height": 3150,
    "Base_Height": 1446,
    "Number_of_Trails": 71,
    "Number_of_Lifts": 6,
    "Number_of_Parks": 3,
    "Trail_Map": "BoltonValleyTrails.jpg",
    "Photos": "",
    "Logo": "BoltonValleyLogo.jpg",
    "Address": "4302 Bolton Valley Access Rd, Richmond, VT 05477",
    "Latitude": 44.421243,
    "Longitude": -72.849368,
    "Website": "http://www.boltonvalley.com/"
  },
  {
    "Name": "Boreal Mountain Resort",
    "Summit_Height": 7700,
    "Base_Height": 7200,
    "Number_of_Trails": 33,
    "Number_of_Lifts": 8,
    "Number_of_Parks": 6,
    "Trail_Map": "BorealMountainTrails.jpg",
    "Photos": "",
    "Logo": "BorealLogo.png",
    "Address": "19749 Boreal Ridge Rd, Soda Springs, CA 95728",
    "Latitude": 39.337699,
    "Longitude": -120.349772,
    "Website": "http://www.rideboreal.com/"
  },
  {
    "Name": "Boston Mills",
    "Summit_Height": 871,
    "Base_Height": 631,
    "Number_of_Trails": 7,
    "Number_of_Lifts": 8,
    "Number_of_Parks": 2,
    "Trail_Map": "BostonMillsTrails.jpg",
    "Photos": "",
    "Logo": "BostonMillsLogo.png",
    "Address": "7100 Riverview Rd, Peninsula, OH 44264",
    "Latitude": 41.263956,
    "Longitude": -81.565433,
    "Website": "http://www.bmbw.com/"
  },
  {
    "Name": "Bousquet Ski Area",
    "Summit_Height": 1875,
    "Base_Height": 1125,
    "Number_of_Trails": 23,
    "Number_of_Lifts": 5,
    "Number_of_Parks": 2,
    "Trail_Map": "BousquetTrails.jpg",
    "Photos": "",
    "Logo": "BousquetLogo.png",
    "Address": "101 Dan Fox Dr, Pittsfield, MA 01201",
    "Latitude": 42.411961,
    "Longitude": -73.268649,
    "Website": "http://www.bousquets.com/"
  },
  {
    "Name": "Boyne Highlands",
    "Summit_Height": 1290,
    "Base_Height": 745,
    "Number_of_Trails": 55,
    "Number_of_Lifts": 10,
    "Number_of_Parks": 4,
    "Trail_Map": "BoyneTrails.jpg",
    "Photos": "",
    "Logo": "BoyneLogo.png",
    "Address": "600 Highland Rd, Harbor Springs, MI 49740",
    "Latitude": 45.464724,
    "Longitude": -84.926535,
    "Website": "http://www.boyne.com/boynehighlands"
  },
  {
    "Name": "Boyne Mountain Resort",
    "Summit_Height": 1120,
    "Base_Height": 620,
    "Number_of_Trails": 60,
    "Number_of_Lifts": 12,
    "Number_of_Parks": 7,
    "Trail_Map": "BoyneMountainTrails.jpg",
    "Photos": "",
    "Logo": "BoyneMountainLogo.png",
    "Address": "1 Boyne Mountain Rd, Boyne Falls, MI 49713",
    "Latitude": 45.16288,
    "Longitude": -84.93006,
    "Website": "http://www.boyne.com/boynemountain"
  },
  {
    "Name": "Bradford Ski Area",
    "Summit_Height": 1547,
    "Base_Height": 1300,
    "Number_of_Trails": 15,
    "Number_of_Lifts": 10,
    "Number_of_Parks": 1,
    "Trail_Map": "BradfordTrails.jpg",
    "Photos": "",
    "Logo": "BradfordLogo.png",
    "Address": "60 S Cross Rd, Haverhill, MA 01835",
    "Latitude": 42.746091,
    "Longitude": -71.059447,
    "Website": "http://skibradford.com/"
  },
  {
    "Name": "Brandywine",
    "Summit_Height": 871,
    "Base_Height": 631,
    "Number_of_Trails": 11,
    "Number_of_Lifts": 16,
    "Number_of_Parks": 2,
    "Trail_Map": "BrandywineTrails.jpg",
    "Photos": "",
    "Logo": "BostonMillsLogo.png",
    "Address": "1146 West Highland Rd, Sagamore Hills, OH 44067",
    "Latitude": 41.289058,
    "Longitude": -81.563361,
    "Website": "http://www.bmbw.com/"
  },
  {
    "Name": "Brantling Ski Slopes",
    "Summit_Height": 850,
    "Base_Height": 600,
    "Number_of_Trails": 10,
    "Number_of_Lifts": 5,
    "Number_of_Parks": "none",
    "Trail_Map": "BrantlingTrails.jpg",
    "Photos": "",
    "Logo": "BrantlingLogo.png",
    "Address": "4015 Fish Farm Rd, Sodus, NY 14551",
    "Latitude": 43.150123,
    "Longitude": -77.065735,
    "Website": "http://www.brantling.com/"
  },
  {
    "Name": "Breckenridge",
    "Summit_Height": 12997,
    "Base_Height": 9600,
    "Number_of_Trails": 187,
    "Number_of_Lifts": 34,
    "Number_of_Parks": 4,
    "Trail_Map": "BreckenridgeTrails.jpg",
    "Photos": "",
    "Logo": "BreckenridgeLogo.png",
    "Address": "1599 Ski Hill Rd, Breckenridge, CO 80424",
    "Latitude": 39.480793,
    "Longitude": -106.066648,
    "Website": "http://www.breckenridge.com/"
  },
  {
    "Name": "Bretton Woods",
    "Summit_Height": 3100,
    "Base_Height": 1600,
    "Number_of_Trails": 91,
    "Number_of_Lifts": 10,
    "Number_of_Parks": 3,
    "Trail_Map": "BrettonWoodsTrails.jpg",
    "Photos": "",
    "Logo": "BrettonWoodsLogo.png",
    "Address": "99, Ski Area Rd, Bretton Woods, NH 03575",
    "Latitude": 44.259262,
    "Longitude": -71.460238,
    "Website": "http://brettonwoods.com/"
  },
  {
    "Name": "Brian Head Resort",
    "Summit_Height": 11306,
    "Base_Height": 9600,
    "Number_of_Trails": 71,
    "Number_of_Lifts": 8,
    "Number_of_Parks": 3,
    "Trail_Map": "BrianHeadTrails.jpg",
    "Photos": "",
    "Logo": "BrianHeadLogo.png",
    "Address": "329 UT-143, Brian Head, UT 84719",
    "Latitude": 37.702131,
    "Longitude": -112.849955,
    "Website": "http://www.brianhead.com/"
  },
  {
    "Name": "Bridger Bowl",
    "Summit_Height": 8700,
    "Base_Height": 6100,
    "Number_of_Trails": 105,
    "Number_of_Lifts": 8,
    "Number_of_Parks": 2,
    "Trail_Map": "BridgerBowlTrails.jpg",
    "Photos": "",
    "Logo": "BridgerBowlLogo.png",
    "Address": "15795 Bridger Canyon Rd, Bozeman, MT 59715",
    "Latitude": 45.816956,
    "Longitude": -110.883336,
    "Website": "https://bridgerbowl.com/"
  },
  {
    "Name": "Brighton Resort",
    "Summit_Height": 10500,
    "Base_Height": 8754,
    "Number_of_Trails": 66,
    "Number_of_Lifts": 6,
    "Number_of_Parks": 4,
    "Trail_Map": "BrightonTrails.jpg",
    "Photos": "",
    "Logo": "BrightonLogo.png",
    "Address": "8302 S Brighton Loop Rd, Brighton, UT 84121",
    "Latitude": 40.598166,
    "Longitude": -111.5829,
    "Website": "http://www.brightonresort.com/"
  },
  {
    "Name": "Bristol Mountain",
    "Summit_Height": 2200,
    "Base_Height": 1000,
    "Number_of_Trails": 34,
    "Number_of_Lifts": 6,
    "Number_of_Parks": 3,
    "Trail_Map": "BristolTrails.jpg",
    "Photos": "",
    "Logo": "BristolLogo.png",
    "Address": "5662 NY-64, Canandaigua, NY 14424",
    "Latitude": 42.745461,
    "Longitude": -77.401481,
    "Website": "http://www.bristolmountain.com/"
  },
  {
    "Name": "Bromley Mountain",
    "Summit_Height": 3283,
    "Base_Height": 1950,
    "Number_of_Trails": 47,
    "Number_of_Lifts": 8,
    "Number_of_Parks": 3,
    "Trail_Map": "BromleyTrails.jpg",
    "Photos": "",
    "Logo": "BromleyLogo.png",
    "Address": "3984 Vt Route 11, Peru, VT 05152",
    "Latitude": 43.21342,
    "Longitude": -72.933289,
    "Website": "https://www.bromley.com/"
  },
  {
    "Name": "Bruce Mound",
    "Summit_Height": 1375,
    "Base_Height": 1000,
    "Number_of_Trails": 12,
    "Number_of_Lifts": 5,
    "Number_of_Parks": 2,
    "Trail_Map": "BruceMoundTrails.jpg",
    "Photos": "",
    "Logo": "BruceMoundLogo.png",
    "Address": "N791 Bruce Mound Ave, Merrillan, WI 54754",
    "Latitude": 44.445656,
    "Longitude": -90.784533,
    "Website": "http://www.co.clark.wi.us/index.aspx?NID=237"
  },
  {
    "Name": "Brundage Mountain Resort",
    "Summit_Height": 7639,
    "Base_Height": 5839,
    "Number_of_Trails": 47,
    "Number_of_Lifts": 5,
    "Number_of_Parks": 2,
    "Trail_Map": "BrundageTrails.jpg",
    "Photos": "",
    "Logo": "BrundageLogo.png",
    "Address": "3890 Goose Lake Road, McCall, ID 83638",
    "Latitude": 44.979891,
    "Longitude": -116.167351,
    "Website": "https://brundage.com/"
  },
  {
    "Name": "Bryce Resort",
    "Summit_Height": 1750,
    "Base_Height": 1250,
    "Number_of_Trails": 8,
    "Number_of_Lifts": 7,
    "Number_of_Parks": "none",
    "Trail_Map": "BryceResortTrails.jpg",
    "Photos": "",
    "Logo": "BryceLogo.jpg",
    "Address": "1982 Fairway Dr, Mt Jackson, VA 22842",
    "Latitude": 38.817465,
    "Longitude": -78.765695,
    "Website": "http://www.bryceresort.com/Home.aspx"
  },
  {
    "Name": "Buck Hill",
    "Summit_Height": 1225,
    "Base_Height": 918,
    "Number_of_Trails": 16,
    "Number_of_Lifts": 8,
    "Number_of_Parks": 4,
    "Trail_Map": "BuckHillTrails.jpg",
    "Photos": "",
    "Logo": "BuckHillLogo.jpg",
    "Address": "15400 Buck Hill Rd, Burnsville, MN 55306",
    "Latitude": 44.724862,
    "Longitude": -93.283733,
    "Website": "http://www.buckhill.com/"
  },
  {
    "Name": "Buena Vista Ski Area",
    "Summit_Height": 1510,
    "Base_Height": 1280,
    "Number_of_Trails": 17,
    "Number_of_Lifts": 6,
    "Number_of_Parks": 3,
    "Trail_Map": "BuenaVistaTrails.gif",
    "Photos": "",
    "Logo": "BuenaVistaLogo.jpg",
    "Address": "19600 Irvine Ave NW, Bemidji, MN 56601",
    "Latitude": 47.657987,
    "Longitude": -94.878951,
    "Website": "https://www.bvskiarea.com/"
  },
  {
    "Name": "Buffalo Ski Club Ski Area",
    "Summit_Height": 3429,
    "Base_Height": 2025,
    "Number_of_Trails": 43,
    "Number_of_Lifts": 6,
    "Number_of_Parks": 1,
    "Trail_Map": "BuffaloSkiTrails.jpg",
    "Photos": "",
    "Logo": "BuffaloLogo.png",
    "Address": "Lwr E Hill Rd, Colden, NY 14033",
    "Latitude": 42.669176,
    "Longitude": -78.701812,
    "Website": "http://www.buffaloskiclub.com/"
  },
  {
    "Name": "Burke Mountain",
    "Summit_Height": 3267,
    "Base_Height": 2011,
    "Number_of_Trails": 50,
    "Number_of_Lifts": 6,
    "Number_of_Parks": 3,
    "Trail_Map": "BurkeTrails.jpg",
    "Photos": "",
    "Logo": "BurkeLogo.png",
    "Address": "223 Sherburne Lodge Rd, East Burke, VT 05832",
    "Latitude": 44.587911,
    "Longitude": -71.916082,
    "Website": "http://skiburke.com/"
  },
  {
    "Name": "Caberfae Peaks",
    "Summit_Height": 1568,
    "Base_Height": 1060,
    "Number_of_Trails": 34,
    "Number_of_Lifts": 5,
    "Number_of_Parks": 2,
    "Trail_Map": "CaberfaeTrails.jpg",
    "Photos": "",
    "Logo": "CaberfaeLogo.png",
    "Address": "1 Caberfae Ln, Cadillac, MI 49601",
    "Latitude": 44.244336,
    "Longitude": -85.720362,
    "Website": "http://caberfaepeaks.com/"
  },
  {
    "Name": "Camden Snow Bowl",
    "Summit_Height": 1080,
    "Base_Height": 150,
    "Number_of_Trails": 26,
    "Number_of_Lifts": 3,
    "Number_of_Parks": 2,
    "Trail_Map": "CamdenTrails.jpg",
    "Photos": "",
    "Logo": "CamdenLogo.png",
    "Address": "20 Barnestown Rd, Camden, ME 04843",
    "Latitude": 44.21773,
    "Longitude": -69.131398,
    "Website": "https://www.camdensnowbowl.com/"
  },
  {
    "Name": "Camelback Mountain Resort",
    "Summit_Height": 2100,
    "Base_Height": 1250,
    "Number_of_Trails": 37,
    "Number_of_Lifts": 16,
    "Number_of_Parks": 5,
    "Trail_Map": "CamelbackTrails.jpg",
    "Photos": "",
    "Logo": "CamelbackLogo.png",
    "Address": "301 Resort Dr, Tannersville, PA 18372",
    "Latitude": 41.051849,
    "Longitude": -75.355009,
    "Website": "http://www.skicamelback.com/"
  },
  {
    "Name": "Campgaw Mountain",
    "Summit_Height": 726,
    "Base_Height": 450,
    "Number_of_Trails": 12,
    "Number_of_Lifts": 5,
    "Number_of_Parks": 1,
    "Trail_Map": "CampgawTrails.jpg",
    "Photos": "",
    "Logo": "CampgawLogo.gif",
    "Address": "200 Campgaw Rd, Mahwah, NJ 07430",
    "Latitude": 41.059927,
    "Longitude": -74.183303,
    "Website": "http://www.skicampgaw.com/"
  },
  {
    "Name": "Canaan Valley Resort",
    "Summit_Height": 4279,
    "Base_Height": 3429,
    "Number_of_Trails": 47,
    "Number_of_Lifts": 5,
    "Number_of_Parks": 1,
    "Trail_Map": "CanaanTrails.jpg",
    "Photos": "",
    "Logo": "CanaanLogo.png",
    "Address": "230 Main Lodge Rd, Davis, WV 26260",
    "Latitude": 39.024285,
    "Longitude": -79.465059,
    "Website": "http://canaanresort.com/winter/ski-resort/"
  },
  {
    "Name": "Cannon Mountain",
    "Summit_Height": 4079,
    "Base_Height": 1900,
    "Number_of_Trails": 95,
    "Number_of_Lifts": 11,
    "Number_of_Parks": 3,
    "Trail_Map": "CannonTrails.jpg",
    "Photos": "",
    "Logo": "CannonLogo.png",
    "Address": "260 Tramway Dr, Franconia, NH 03580",
    "Latitude": 44.170091,
    "Longitude": -71.688784,
    "Website": "http://www.cannonmt.com/index.html"
  },
  {
    "Name": "Cannonsburg",
    "Summit_Height": 1100,
    "Base_Height": 850,
    "Number_of_Trails": 21,
    "Number_of_Lifts": 10,
    "Number_of_Parks": 5,
    "Trail_Map": "CannonsburgTrails.jpg",
    "Photos": "",
    "Logo": "CannonsburgLogo.png",
    "Address": "6800 Cannonsburg Rd NE, Belmont, MI 49306",
    "Latitude": 43.05412,
    "Longitude": -85.501242,
    "Website": "http://cannonsburg.com/"
  },
  {
    "Name": "Cascade Mountain",
    "Summit_Height": 1280,
    "Base_Height": 820,
    "Number_of_Trails": 44,
    "Number_of_Lifts": 12,
    "Number_of_Parks": 4,
    "Trail_Map": "CascadeTrails.jpg",
    "Photos": "",
    "Logo": "CascadeLogo.png",
    "Address": "W10441 Cascade Mountain Rd, Portage, WI 53901",
    "Latitude": 43.503573,
    "Longitude": -89.517246,
    "Website": "http://www.cascademountain.com/"
  },
  {
    "Name": "Cataloochee Ski Area",
    "Summit_Height": 5400,
    "Base_Height": 4660,
    "Number_of_Trails": 18,
    "Number_of_Lifts": 5,
    "Number_of_Parks": 2,
    "Trail_Map": "CataloocheeTrails.jpg",
    "Photos": "",
    "Logo": "CataloocheeLogo.png",
    "Address": "1080 Ski Lodge Rd, Maggie Valley, NC 28751",
    "Latitude": 35.563065,
    "Longitude": -83.089668,
    "Website": "http://cataloochee.com/"
  },
  {
    "Name": "Catamount",
    "Summit_Height": 2000,
    "Base_Height": 1000,
    "Number_of_Trails": 36,
    "Number_of_Lifts": 7,
    "Number_of_Parks": 5,
    "Trail_Map": "CatamountTrails.jpg",
    "Photos": "",
    "Logo": "CatamountLogo.jpg",
    "Address": "78 Catamount Rd, Hillsdale, NY 12529",
    "Latitude": 42.1691,
    "Longitude": -73.476926,
    "Website": "http://www.catamountski.com/"
  },
  {
    "Name": "Chestnut Mountain Resort",
    "Summit_Height": 1040,
    "Base_Height": 565,
    "Number_of_Trails": 22,
    "Number_of_Lifts": 9,
    "Number_of_Parks": 3,
    "Trail_Map": "ChestnutTrails1.png",
    "Photos": "",
    "Logo": "ChestnutLogo.png",
    "Address": "8700 W Chestnut Mountain Rd, Galena, IL 61036",
    "Latitude": 42.318909,
    "Longitude": -90.3939,
    "Website": "https://www.chestnutmtn.com/"
  },
  {
    "Name": "Christie Mountain",
    "Summit_Height": 1650,
    "Base_Height": 1300,
    "Number_of_Trails": 30,
    "Number_of_Lifts": 6,
    "Number_of_Parks": 4,
    "Trail_Map": "ChristieTrails.jpg",
    "Photos": "",
    "Logo": "ChristieMountainLogo.png",
    "Address": "Co Rd O, Bruce, WI 54819",
    "Latitude": 45.479118,
    "Longitude": -91.338363,
    "Website": "http://www.christiemountain.com/"
  },
  {
    "Name": "Christmas Mountain",
    "Summit_Height": 1250,
    "Base_Height": 1000,
    "Number_of_Trails": 16,
    "Number_of_Lifts": 5,
    "Number_of_Parks": 3,
    "Trail_Map": "ChristmasTrails.jpg",
    "Photos": "",
    "Logo": "ChristmasLogo.png",
    "Address": "S944 Christmas Mountain Rd, Wisconsin Dells, WI 53965",
    "Latitude": 43.609047,
    "Longitude": -89.860063,
    "Website": "https://www.christmasmountainvillage.com/"
  },
  {
    "Name": "Coffee Mill Ski & Snowboard Resort",
    "Summit_Height": 1150,
    "Base_Height": 725,
    "Number_of_Trails": 14,
    "Number_of_Lifts": 3,
    "Number_of_Parks": 1,
    "Trail_Map": "CoffeeTrails.jpg",
    "Photos": "",
    "Logo": "CoffeeLogo.jpeg",
    "Address": "99 Coulee Way, Wabasha, MN 55981",
    "Latitude": 44.363661,
    "Longitude": -92.04349,
    "Website": "http://www.coffeemillski.com/"
  },
  {
    "Name": "Cooper",
    "Summit_Height": 11700,
    "Base_Height": 10400,
    "Number_of_Trails": 39,
    "Number_of_Lifts": 4,
    "Number_of_Parks": 2,
    "Trail_Map": "CooperTrails.jpg",
    "Photos": "",
    "Logo": "CooperLogo.jpeg",
    "Address": "232 County Road 29, Leadville, CO 80461",
    "Latitude": 39.360787,
    "Longitude": -106.302808,
    "Website": "http://skicooper.com/"
  },
  {
    "Name": "Cooper Spur",
    "Summit_Height": 4000,
    "Base_Height": 3500,
    "Number_of_Trails": 10,
    "Number_of_Lifts": 2,
    "Number_of_Parks": "none",
    "Trail_Map": "CooperSpurTrails.jpg",
    "Photos": "",
    "Logo": "CooperSpurLogo.png",
    "Address": "10755 Cooper Spur Rd, Mt Hood, OR 97041",
    "Latitude": 45.425516,
    "Longitude": -121.591098,
    "Website": "http://cooperspur.com/"
  },
  {
    "Name": "Copper Mountain Resort",
    "Summit_Height": 12312,
    "Base_Height": 9702,
    "Number_of_Trails": 142,
    "Number_of_Lifts": 23,
    "Number_of_Parks": 6,
    "Trail_Map": "CopperMountainTrails.jpg",
    "Photos": "",
    "Logo": "CopperMountainLogo.jpg",
    "Address": "0189 Ten Mile Cir #116, Frisco, CO 80443",
    "Latitude": 39.500627,
    "Longitude": -106.154263,
    "Website": "http://www.coppercolorado.com/winter"
  },
  {
    "Name": "Cranmore Mountain Resort",
    "Summit_Height": 2000,
    "Base_Height": 600,
    "Number_of_Trails": 57,
    "Number_of_Lifts": 7,
    "Number_of_Parks": 4,
    "Trail_Map": "CranmoreTrails.jpg",
    "Photos": "",
    "Logo": "CranmoreLogo.png",
    "Address": "1 Skimobile Rd, North Conway, NH 03860",
    "Latitude": 44.055888,
    "Longitude": -71.109591,
    "Website": "http://www.cranmore.com/"
  },
  {
    "Name": "Crested Butte Mountain Resort",
    "Summit_Height": 12162,
    "Base_Height": 9100,
    "Number_of_Trails": 121,
    "Number_of_Lifts": 15,
    "Number_of_Parks": 4,
    "Trail_Map": "CrestedButteTrails.jpg",
    "Photos": "",
    "Logo": "CrestedButteLogo.png",
    "Address": "12 Snowmass Rd, Crested Butte, CO 81225",
    "Latitude": 38.898902,
    "Longitude": -106.965861,
    "Website": "http://www.skicb.com/"
  },
  {
    "Name": "Crotched Mountain",
    "Summit_Height": 2066,
    "Base_Height": 1050,
    "Number_of_Trails": 25,
    "Number_of_Lifts": 5,
    "Number_of_Parks": 3,
    "Trail_Map": "CrotchedMountainTrails.jpg",
    "Photos": "",
    "Logo": "CrotchedLogo.png",
    "Address": "615 Francestown Road, Bennington,�NH�03442",
    "Latitude": 43.012028,
    "Longitude": -71.878838,
    "Website": "http://www.crotchedmtn.com/"
  },
  {
    "Name": "Crystal Mountain Resort",
    "Summit_Height": 1132,
    "Base_Height": 757,
    "Number_of_Trails": 58,
    "Number_of_Lifts": 9,
    "Number_of_Parks": 5,
    "Trail_Map": "CrystalTrails.jpg",
    "Photos": "",
    "Logo": "CrystalMILogo.png",
    "Address": "12500 Crystal Mountain Dr, Thompsonville, MI 49683",
    "Latitude": 44.51926,
    "Longitude": -85.990655,
    "Website": "http://www.crystalmountain.com/"
  },
  {
    "Name": "Crystal Mountain",
    "Summit_Height": 7012,
    "Base_Height": 4400,
    "Number_of_Trails": 57,
    "Number_of_Lifts": 11,
    "Number_of_Parks": 1,
    "Trail_Map": "CrystalWATrails.jpg",
    "Photos": "",
    "Logo": "CrystalLogo.png",
    "Address": "33914 Crystal Mountain Blvd, Crystal Mountain, WA 98022",
    "Latitude": 46.935479,
    "Longitude": -121.474813,
    "Website": "http://www/crystalmountainresort.com"
  },
  {
    "Name": "Dartmouth Skiway",
    "Summit_Height": 1942,
    "Base_Height": 973,
    "Number_of_Trails": 28,
    "Number_of_Lifts": 4,
    "Number_of_Parks": 1,
    "Trail_Map": "DartmouthTrails.jpg",
    "Photos": "",
    "Logo": "dartmouthLogo.jpg",
    "Address": "39 Grafton Turnpike, Lyme Center, NH 03769",
    "Latitude": 43.783178,
    "Longitude": -72.097135,
    "Website": "http://skiway.dartmouth.edu/"
  },
  {
    "Name": "Deer Mountain Ski Resort",
    "Summit_Height": 6850,
    "Base_Height": 6039,
    "Number_of_Trails": 63,
    "Number_of_Lifts": 4,
    "Number_of_Parks": 2,
    "Trail_Map": "DeerMountainTrails.jpg",
    "Photos": "",
    "Logo": "DeerMountainLogo.png",
    "Address": "11187 Deer Mountain Rd, Lead, SD 57754",
    "Latitude": 44.308328,
    "Longitude": -103.818415,
    "Website": "https://deermtnsd.com/"
  },
  {
    "Name": "Deer Valley Resort",
    "Summit_Height": 9570,
    "Base_Height": 6570,
    "Number_of_Trails": 101,
    "Number_of_Lifts": 21,
    "Number_of_Parks": "none",
    "Trail_Map": "DeerValleyTrails.jpg",
    "Photos": "",
    "Logo": "DeerValleyLogo.png",
    "Address": "2250 Deer Valley Dr S, Park City, UT 84060",
    "Latitude": 40.637655,
    "Longitude": -111.47849,
    "Website": "http://www.deervalley.com/"
  },
  {
    "Name": "Devil's Head",
    "Summit_Height": 995,
    "Base_Height": 495,
    "Number_of_Trails": 27,
    "Number_of_Lifts": 12,
    "Number_of_Parks": 4,
    "Trail_Map": "DevilsHeadTrails.jpg",
    "Photos": "",
    "Logo": "DevilsHeadLogo.png",
    "Address": "S6330 Bluff Rd, Merrimac, WI 53561",
    "Latitude": 43.418004,
    "Longitude": -89.626897,
    "Website": "http://www.devilsheadresort.com/the-mountain/"
  },
  {
    "Name": "Diamond Peak",
    "Summit_Height": 8539,
    "Base_Height": 6700,
    "Number_of_Trails": 31,
    "Number_of_Lifts": 7,
    "Number_of_Parks": 4,
    "Trail_Map": "DiamondPeakTrails.jpg",
    "Photos": "",
    "Logo": "DiamondPeakLogo.png",
    "Address": "1210 Ski Way, Incline Village, NV 89451",
    "Latitude": 39.253696,
    "Longitude": -119.923881,
    "Website": "http://www.diamondpeak.com/"
  },
  {
    "Name": "Discovery Ski Area",
    "Summit_Height": 8150,
    "Base_Height": 5770,
    "Number_of_Trails": 67,
    "Number_of_Lifts": 8,
    "Number_of_Parks": 1,
    "Trail_Map": "DiscoveryTrails1.jpg",
    "Photos": "",
    "Logo": "DiscoveryLogo.jpg",
    "Address": "180 Discovery Basin Rd, Anaconda, MT 59711",
    "Latitude": 46.249615,
    "Longitude": -113.238451,
    "Website": "http://www.skidiscovery.com/"
  },
  {
    "Name": "Dodge Ridge",
    "Summit_Height": 8200,
    "Base_Height": 6600,
    "Number_of_Trails": 67,
    "Number_of_Lifts": 12,
    "Number_of_Parks": 5,
    "Trail_Map": "DodgeTrails.jpg",
    "Photos": "",
    "Logo": "DodgeRidgeLogo.png",
    "Address": "1 Dodge Ridge Rd, Pinecrest, CA 95364",
    "Latitude": 38.188814,
    "Longitude": -119.976333,
    "Website": "http://www.dodgeridge.com/"
  },
  {
    "Name": "Donner Ski Ranch",
    "Summit_Height": 8012,
    "Base_Height": 7031,
    "Number_of_Trails": 52,
    "Number_of_Lifts": 8,
    "Number_of_Parks": 1,
    "Trail_Map": "DonnerTrails.jpeg",
    "Photos": "",
    "Logo": "donnerLogo.gif",
    "Address": "19320 Donner Pass Rd, Norden, CA 95724",
    "Latitude": 39.317501,
    "Longitude": -120.33041,
    "Website": "https://www.donnerskiranch.com/"
  },
  {
    "Name": "Dry Hill Ski Area",
    "Summit_Height": 950,
    "Base_Height": 650,
    "Number_of_Trails": 7,
    "Number_of_Lifts": 3,
    "Number_of_Parks": 1,
    "Trail_Map": "DryHillTrails.jpg",
    "Photos": "",
    "Logo": "DryHillLogo.png",
    "Address": "18160 Alpine Ridge Rd, Watertown, NY 13601",
    "Latitude": 43.933871,
    "Longitude": -75.900021,
    "Website": "http://skidryhill.com/"
  },
  {
    "Name": "Eaglecrest Ski Area",
    "Summit_Height": 2600,
    "Base_Height": 1200,
    "Number_of_Trails": 36,
    "Number_of_Lifts": 4,
    "Number_of_Parks": 1,
    "Trail_Map": "EaglecrestTrails.jpg",
    "Photos": "",
    "Logo": "EaglecrestLogo.png",
    "Address": "3000 Fish Creek Road, Juneau, AK 99801",
    "Latitude": 58.2675,
    "Longitude": -134.514,
    "Website": "http://www.skijuneau.com/"
  },
  {
    "Name": "Eagle Point",
    "Summit_Height": 10600,
    "Base_Height": 9100,
    "Number_of_Trails": 40,
    "Number_of_Lifts": 5,
    "Number_of_Parks": 1,
    "Trail_Map": "EaglePointTrails.jpg",
    "Photos": "",
    "Logo": "EaglePointLogo.jpg",
    "Address": "150 S W Village Cir, Beaver, UT 84713",
    "Latitude": 38.320231,
    "Longitude": -112.383904,
    "Website": "http://www.eaglepointresort.com/"
  },
  {
    "Name": "Eagle Rock",
    "Summit_Height": 1810,
    "Base_Height": 1260,
    "Number_of_Trails": 14,
    "Number_of_Lifts": 3,
    "Number_of_Parks": 1,
    "Trail_Map": "EagleRockTrails.jpg",
    "Photos": "",
    "Logo": "EagleRockLogo.jpg",
    "Address": "1 Country Club Dr, Hazle Township, PA 18202",
    "Latitude": 40.921075,
    "Longitude": -76.099054,
    "Website": "https://ddresorts.com/eagle-rock/"
  },
  {
    "Name": "Eldora Mountain Resort",
    "Summit_Height": 10800,
    "Base_Height": 9200,
    "Number_of_Trails": 57,
    "Number_of_Lifts": 11,
    "Number_of_Parks": 3,
    "Trail_Map": "EldoraTrails.jpg",
    "Photos": "",
    "Logo": "EldoraLogo.jpg",
    "Address": "2861 Eldora Ski Rd #140,, Nederland, CO 80466",
    "Latitude": 39.93722,
    "Longitude": -105.582679,
    "Website": "https://www.eldora.com/"
  },
  {
    "Name": "Elk Mountain Ski Resort",
    "Summit_Height": 2692,
    "Base_Height": 1692,
    "Number_of_Trails": 27,
    "Number_of_Lifts": 7,
    "Number_of_Parks": 2,
    "Trail_Map": "ElkMountainTrails.jpg",
    "Photos": "",
    "Logo": "ElkMountainLogo.jpg",
    "Address": "344 Elk Mountain Rd, Union Dale, PA 18470",
    "Latitude": 41.720513,
    "Longitude": -75.559298,
    "Website": "https://www.elkskier.com/"
  },
  {
    "Name": "Elko SnoBowl",
    "Summit_Height": 7000,
    "Base_Height": 6300,
    "Number_of_Trails": 10,
    "Number_of_Lifts": 2,
    "Number_of_Parks": "none",
    "Trail_Map": "",
    "Photos": "",
    "Logo": "elkoLogo.gif",
    "Address": "1992 Snowbowl Rd, Elko, NV 89801",
    "Latitude": 40.908907,
    "Longitude": -115.852045,
    "Website": "http://www.nevadadventures.com/winter/Clients/SnoBowl/SnoBowl.html"
  },
  {
    "Name": "Elm Creek Winter Recreation Area",
    "Summit_Height": 927,
    "Base_Height": 867,
    "Number_of_Trails": 3,
    "Number_of_Lifts": 3,
    "Number_of_Parks": "none",
    "Trail_Map": "elmCreekTrails.jpg",
    "Photos": "",
    "Logo": "ElmCreekLogo.gif",
    "Address": "12400 James Deane Parkway, Maple Grove, MN 55369",
    "Latitude": 45.13856,
    "Longitude": -93.437058,
    "Website": ""
  },
  {
    "Name": "Enchanted Ski Area",
    "Summit_Height": 10077,
    "Base_Height": 9820,
    "Number_of_Trails": 33,
    "Number_of_Lifts": 0,
    "Number_of_Parks": "none",
    "Trail_Map": "EnchantedForestTrails.jpg",
    "Photos": "",
    "Logo": "EnchantedForestLogo.jpeg",
    "Address": "29 Sangre De Cristo, Red River, NM 87558",
    "Latitude": 36.700877,
    "Longitude": -105.348059,
    "Website": "https://www.enchantedforestxc.com/"
  },
  {
    "Name": "Four Lakes",
    "Summit_Height": 500,
    "Base_Height": 400,
    "Number_of_Trails": 7,
    "Number_of_Lifts": 7,
    "Number_of_Parks": 1,
    "Trail_Map": "FourLakesTrails.webp",
    "Photos": "",
    "Logo": "FourLakesLogo.webp",
    "Address": "5750 Lakeside Dr, Lisle, IL 60532",
    "Latitude": 41.782577,
    "Longitude": -88.083744,
    "Website": "https://www.fourlakessnowsports.com/"
  },
  {
    "Name": "Giants Ridge Resort",
    "Summit_Height": 1972,
    "Base_Height": 1472,
    "Number_of_Trails": 35,
    "Number_of_Lifts": 7,
    "Number_of_Parks": 3,
    "Trail_Map": "GiantsRidgeTrails.jpg",
    "Photos": "",
    "Logo": "GiantsRidgeLogo.png",
    "Address": "6329 Wynne Creek Dr, Biwabik, MN 55708",
    "Latitude": 47.57652,
    "Longitude": -92.303169,
    "Website": "http://www.giantsridge.com/"
  },
  {
    "Name": "Gore Mountain",
    "Summit_Height": 3600,
    "Base_Height": 997,
    "Number_of_Trails": 109,
    "Number_of_Lifts": 14,
    "Number_of_Parks": 6,
    "Trail_Map": "GoreMountainTrails.jpg",
    "Photos": "",
    "Logo": "GoreMountainLogo.png",
    "Address": "793 Peaceful Valley Rd, North Creek, NY 12853",
    "Latitude": 43.682494,
    "Longitude": -73.991693,
    "Website": "http://www.goremountain.com/"
  },
  {
    "Name": "Grand Geneva",
    "Summit_Height": 1086,
    "Base_Height": 875,
    "Number_of_Trails": 20,
    "Number_of_Lifts": 6,
    "Number_of_Parks": 1,
    "Trail_Map": "GrandGenevaTrails.jpg",
    "Photos": "",
    "Logo": "GrandGenevaLogo.jpeg",
    "Address": "7036 Grand Geneva Way, Lake Geneva, WI 53147",
    "Latitude": 42.609208,
    "Longitude": -88.407128,
    "Website": "http://www.grandgeneva.com/ski-snowboard-wisconsin/"
  },
  {
    "Name": "Grand Targhee Resort",
    "Summit_Height": 9920,
    "Base_Height": 7850,
    "Number_of_Trails": 95,
    "Number_of_Lifts": 5,
    "Number_of_Parks": 1,
    "Trail_Map": "GrandTargheeTrails.jpg",
    "Photos": "",
    "Logo": "GrandTargheeLogo.png",
    "Address": "3300 Ski Hill Rd, Alta, WY 83414",
    "Latitude": 43.788122,
    "Longitude": -110.958767,
    "Website": "http://www.grandtarghee.com/"
  },
  {
    "Name": "Granite Gorge",
    "Summit_Height": 1325,
    "Base_Height": 800,
    "Number_of_Trails": 19,
    "Number_of_Lifts": 4,
    "Number_of_Parks": 2,
    "Trail_Map": "GraniteGorgeTrails.jpg",
    "Photos": "",
    "Logo": "GraniteGorgeLogo.jpg",
    "Address": "341 NH-9, Roxbury, NH 03431",
    "Latitude": 42.971481,
    "Longitude": -72.21395,
    "Website": "http://www.granitegorge.com/"
  },
  {
    "Name": "Granite Peak Ski Area",
    "Summit_Height": 1942,
    "Base_Height": 1242,
    "Number_of_Trails": 75,
    "Number_of_Lifts": 7,
    "Number_of_Parks": 6,
    "Trail_Map": "GranitePeakTrails.jpg",
    "Photos": "",
    "Logo": "GranitePeakLogo.png",
    "Address": "3605 N Mountain Rd, Wausau, WI 54402",
    "Latitude": 44.934313,
    "Longitude": -89.677943,
    "Website": "https://www.skigranitepeak.com/"
  },
  {
    "Name": "Great Divide",
    "Summit_Height": 7329,
    "Base_Height": 5750,
    "Number_of_Trails": 110,
    "Number_of_Lifts": 6,
    "Number_of_Parks": 6,
    "Trail_Map": "GreatDivideTrails.jpg",
    "Photos": "",
    "Logo": "GreatDivideLogo.png",
    "Address": "7385 Belmont Dr, Marysville, MT 59640",
    "Latitude": 46.752904,
    "Longitude": -112.31352,
    "Website": "http://skigd.com/"
  },
  {
    "Name": "Greek Peak",
    "Summit_Height": 2100,
    "Base_Height": 1147,
    "Number_of_Trails": 42,
    "Number_of_Lifts": 8,
    "Number_of_Parks": 4,
    "Trail_Map": "GreekPeakTrails.jpg",
    "Photos": "",
    "Logo": "GreakPeakLogo.jpg",
    "Address": "2000 New York 392, Cortland, NY 13045",
    "Latitude": 42.51224,
    "Longitude": -76.147657,
    "Website": "http://greekpeak.net/"
  },
  {
    "Name": "Gunstock",
    "Summit_Height": 2300,
    "Base_Height": 900,
    "Number_of_Trails": 49,
    "Number_of_Lifts": 8,
    "Number_of_Parks": 3,
    "Trail_Map": "GunstockTrails.jpg",
    "Photos": "",
    "Logo": "GunstockLogo.png",
    "Address": "719 Cherry Valley Rd, Gilford, NH 03249",
    "Latitude": 43.550139,
    "Longitude": -71.358883,
    "Website": "https://www.gunstock.com/"
  },
  {
    "Name": "Heavenly Mountain Resort",
    "Summit_Height": 10066,
    "Base_Height": 6564,
    "Number_of_Trails": 97,
    "Number_of_Lifts": 30,
    "Number_of_Parks": 3,
    "Trail_Map": "HeavenlyTrails.jpg",
    "Photos": "",
    "Logo": "HeavenlyLogo.png",
    "Address": "4080 Lake Tahoe Blvd, South Lake Tahoe, CA 96150",
    "Latitude": 38.95684,
    "Longitude": -119.942709,
    "Website": "http://www.skiheavenly.com/"
  },
  {
    "Name": "Hickory Ski Center",
    "Summit_Height": 1900,
    "Base_Height": 700,
    "Number_of_Trails": 19,
    "Number_of_Lifts": 4,
    "Number_of_Parks": "none",
    "Trail_Map": "HickoryTrails.jpg",
    "Photos": "",
    "Logo": "HickoryLogo.jpg",
    "Address": "43 Hickory Hill Rd, Warrensburg, NY 12885",
    "Latitude": 43.470071,
    "Longitude": -73.811216,
    "Website": "http://www.hickoryskicenter.com/"
  },
  {
    "Name": "Hidden Valley Ski Area",
    "Summit_Height": 2566,
    "Base_Height": 2316,
    "Number_of_Trails": 14,
    "Number_of_Lifts": 7,
    "Number_of_Parks": 2,
    "Trail_Map": "HiddenValleyTrails.jpg",
    "Photos": "",
    "Logo": "HiddenValleyLogo.jpg",
    "Address": "17409 Hidden Valley Dr, Eureka, MO 63025",
    "Latitude": 38.53127,
    "Longitude": -90.643866,
    "Website": "http://www.hiddenvalleyski.com/"
  },
  {
    "Name": "Hilltop Ski Area",
    "Summit_Height": 2090,
    "Base_Height": 1796,
    "Number_of_Trails": 13,
    "Number_of_Lifts": 3,
    "Number_of_Parks": 1,
    "Trail_Map": "HilltopTrails.jpg",
    "Photos": "",
    "Logo": "HilltopLogo.png",
    "Address": "7015 Abbott Road, Anchorage, AK 99507",
    "Latitude": 61.141185,
    "Longitude": -149.759419,
    "Website": "http://www.hilltopskiarea.org/"
  },
  {
    "Name": "Hogadon Basin",
    "Summit_Height": 8000,
    "Base_Height": 7400,
    "Number_of_Trails": 27,
    "Number_of_Lifts": 2,
    "Number_of_Parks": 1,
    "Trail_Map": "HogadonTrails.jpg",
    "Photos": "",
    "Logo": "HogadonLogo.png",
    "Address": "2500 Hogadon Rd, Casper, WY 82601",
    "Latitude": 42.742877,
    "Longitude": -106.338164,
    "Website": "http://www.hogadon.net/"
  },
  {
    "Name": "Holiday Mountain",
    "Summit_Height": 1550,
    "Base_Height": 1150,
    "Number_of_Trails": 9,
    "Number_of_Lifts": 4,
    "Number_of_Parks": "none",
    "Trail_Map": "HolidayTrails.jpg",
    "Photos": "",
    "Logo": "HolidayLogo.png",
    "Address": "99 Holiday Mountain Rd, Monticello, NY 12701",
    "Latitude": 41.626299,
    "Longitude": -74.609274,
    "Website": "http://www.holidaymtn.com/"
  },
  {
    "Name": "Holiday Valley",
    "Summit_Height": 2250,
    "Base_Height": 1500,
    "Number_of_Trails": 58,
    "Number_of_Lifts": 13,
    "Number_of_Parks": 5,
    "Trail_Map": "HolidayValleyTrails.jpg",
    "Photos": "",
    "Logo": "HolidayValleyLogo.png",
    "Address": "6557 Holiday Valley Rd, Ellicottville, NY 14731",
    "Latitude": 42.262473,
    "Longitude": -78.668128,
    "Website": "http://www.holidayvalley.com/"
  },
  {
    "Name": "Holimont Ski Area",
    "Summit_Height": 2260,
    "Base_Height": 1560,
    "Number_of_Trails": 53,
    "Number_of_Lifts": 8,
    "Number_of_Parks": 3,
    "Trail_Map": "HolimontTrails.jpg",
    "Photos": "",
    "Logo": "HolimontLogo.jpg",
    "Address": "6921 NY-242, Ellicottville, NY 14731",
    "Latitude": 42.273072,
    "Longitude": -78.689441,
    "Website": "http://www.holimont.com/"
  },
  {
    "Name": "Homewood Mountain Resort",
    "Summit_Height": 7879,
    "Base_Height": 6229,
    "Number_of_Trails": 64,
    "Number_of_Lifts": 8,
    "Number_of_Parks": 2,
    "Trail_Map": "HomewoodTrails.jpg",
    "Photos": "",
    "Logo": "HomewoodLogo.png",
    "Address": "5145 W Lake Blvd, Homewood, CA 96141",
    "Latitude": 39.085566,
    "Longitude": -120.160483,
    "Website": "http://www.skihomewood.com/"
  },
  {
    "Name": "Hoodoo Ski Area",
    "Summit_Height": 5702,
    "Base_Height": 4668,
    "Number_of_Trails": 34,
    "Number_of_Lifts": 5,
    "Number_of_Parks": 1,
    "Trail_Map": "HoodooTrails.jpg",
    "Photos": "",
    "Logo": "HoodooLogo.jpg",
    "Address": "Hwy 20, Sisters, OR 97759",
    "Latitude": 44.291326,
    "Longitude": -121.549209,
    "Website": "http://skihoodoo.com/"
  },
  {
    "Name": "Howelsen Hill Skiing",
    "Summit_Height": 7135,
    "Base_Height": 6695,
    "Number_of_Trails": 17,
    "Number_of_Lifts": 4,
    "Number_of_Parks": 1,
    "Trail_Map": "HowelsenTrails.jpg",
    "Photos": "",
    "Logo": "HowelsenHillLogo.jpg",
    "Address": "Howelsen Pkwy, Steamboat Springs, CO 80487",
    "Latitude": 40.482757,
    "Longitude": -106.832901,
    "Website": "http://coloradoski.com/resorts/howelsen"
  },
  {
    "Name": "Hunter Mountain",
    "Summit_Height": 3200,
    "Base_Height": 1600,
    "Number_of_Trails": 58,
    "Number_of_Lifts": 11,
    "Number_of_Parks": 2,
    "Trail_Map": "HunterTrails.jpg",
    "Photos": "",
    "Logo": "HunterLogo.png",
    "Address": "Main St, Hunter, NY 12442",
    "Latitude": 42.209042,
    "Longitude": -74.212076,
    "Website": "http://www.huntermtn.com/"
  },
  {
    "Name": "Hunt Hollow Ski Club",
    "Summit_Height": 2030,
    "Base_Height": 1000,
    "Number_of_Trails": 19,
    "Number_of_Lifts": 4,
    "Number_of_Parks": 1,
    "Trail_Map": "HuntTrails.jpg",
    "Photos": "",
    "Logo": "HuntLogo.png",
    "Address": "7532 County Road 36, Naples, NY 14512",
    "Latitude": 42.643014,
    "Longitude": -77.469117,
    "Website": "http://www.hunthollow.com/"
  },
  {
    "Name": "Hyland Hills Ski Area",
    "Summit_Height": 1075,
    "Base_Height": 900,
    "Number_of_Trails": 9,
    "Number_of_Lifts": 5,
    "Number_of_Parks": 1,
    "Trail_Map": "HylandTrails.jpg",
    "Photos": "",
    "Logo": "HylandLogo.jpg",
    "Address": "8800 Chalet Rd, Bloomington, MN 55438",
    "Latitude": 44.843592,
    "Longitude": -93.363901,
    "Website": "https://www.threeriversparks.org/parks/hyland-lake-park/hyland-hills-ski-area.aspx"
  },
  {
    "Name": "Jack Frost",
    "Summit_Height": 2000,
    "Base_Height": 1400,
    "Number_of_Trails": 20,
    "Number_of_Lifts": 9,
    "Number_of_Parks": 1,
    "Trail_Map": "JackFrostTrails.jpg",
    "Photos": "",
    "Logo": "JFBB.png",
    "Address": "434 Jack Frost Mountain Rd, White Haven, PA 18661",
    "Latitude": 41.110006,
    "Longitude": -75.65123,
    "Website": "https://www.jfbb.com/"
  },
  {
    "Name": "Jackson Hole Mountain Resort",
    "Summit_Height": 10450,
    "Base_Height": 6310,
    "Number_of_Trails": 133,
    "Number_of_Lifts": 12,
    "Number_of_Parks": 7,
    "Trail_Map": "JacksonHoleTrails.jpg",
    "Photos": "",
    "Logo": "JacksonLogo.png",
    "Address": "3395 Cody Ln, Teton Village, WY 83025",
    "Latitude": 43.587775,
    "Longitude": -110.830005,
    "Website": "https://www.jacksonhole.com/"
  },
  {
    "Name": "Jay Peak",
    "Summit_Height": 3968,
    "Base_Height": 1815,
    "Number_of_Trails": 78,
    "Number_of_Lifts": 9,
    "Number_of_Parks": 3,
    "Trail_Map": "JayPeakTrails.jpg",
    "Photos": "",
    "Logo": "JayLogo.png",
    "Address": "830 Jay Peak Rd, Jay, VT 05859",
    "Latitude": 44.93796,
    "Longitude": -72.504544,
    "Website": "http://jaypeakresort.com/"
  },
  {
    "Name": "Jimney Peak",
    "Summit_Height": 2380,
    "Base_Height": 1230,
    "Number_of_Trails": 45,
    "Number_of_Lifts": 9,
    "Number_of_Parks": 3,
    "Trail_Map": "JimneyTrails.jpg",
    "Photos": "",
    "Logo": "JimneyLogo.png",
    "Address": "11 Corey Rd, Hancock, MA 01237",
    "Latitude": 42.556023,
    "Longitude": -73.290946,
    "Website": "http://jiminypeak.com/"
  },
  {
    "Name": "June Mountain",
    "Summit_Height": 10174,
    "Base_Height": 7510,
    "Number_of_Trails": 35,
    "Number_of_Lifts": 7,
    "Number_of_Parks": 2,
    "Trail_Map": "JuneTrails.jpg",
    "Photos": "",
    "Logo": "JuneLogo.jpg",
    "Address": "3819 CA-158, June Lake, CA 93529",
    "Latitude": 37.767917,
    "Longitude": -119.090629,
    "Website": "https://www.junemountain.com/"
  },
  {
    "Name": "Kelly Canyon Ski Area",
    "Summit_Height": 6600,
    "Base_Height": 5600,
    "Number_of_Trails": 51,
    "Number_of_Lifts": 6,
    "Number_of_Parks": 1,
    "Trail_Map": "KellyTrails.jpg",
    "Photos": "",
    "Logo": "KellyCanyonLogo.jpg",
    "Address": "5488 Kelly Canyon Rd, Ririe, ID 83443",
    "Latitude": 43.644534,
    "Longitude": -111.630883,
    "Website": "http://www.skikelly.com/"
  },
  {
    "Name": "Keyston",
    "Summit_Height": 12408,
    "Base_Height": 9279,
    "Number_of_Trails": 131,
    "Number_of_Lifts": 20,
    "Number_of_Parks": 1,
    "Trail_Map": "KeystoneTrails.jpg",
    "Photos": "",
    "Logo": "KeystoneLogo.png",
    "Address": "21996 US-6, Dillon, CO 80435",
    "Latitude": 39.605006,
    "Longitude": -105.976876,
    "Website": "http://www.keystoneresort.com/"
  },
  {
    "Name": "Killington Resort",
    "Summit_Height": 4241,
    "Base_Height": 1165,
    "Number_of_Trails": 155,
    "Number_of_Lifts": 21,
    "Number_of_Parks": 5,
    "Trail_Map": "KillingtonTrails.jpg",
    "Photos": "",
    "Logo": "KillingtonLogo.png",
    "Address": "4763 Killington Rd, Killington, VT 05751",
    "Latitude": 43.619801,
    "Longitude": -72.80271,
    "Website": "http://www.killington.com/site/index.html"
  },
  {
    "Name": "King Pine",
    "Summit_Height": 850,
    "Base_Height": 500,
    "Number_of_Trails": 17,
    "Number_of_Lifts": 6,
    "Number_of_Parks": 2,
    "Trail_Map": "KingPineTrails.jpg",
    "Photos": "",
    "Logo": "KingPineLogo.png",
    "Address": "1251 Eaton Rd, Madison, NH 03849",
    "Latitude": 43.861018,
    "Longitude": -71.089293,
    "Website": "https://www.kingpine.com/"
  },
  {
    "Name": "Kirkwood",
    "Summit_Height": 9800,
    "Base_Height": 7800,
    "Number_of_Trails": 86,
    "Number_of_Lifts": 15,
    "Number_of_Parks": 2,
    "Trail_Map": "KirkwoodTrails.jpg",
    "Photos": "",
    "Logo": "KirkwoodLogo.jpg",
    "Address": "1501 Kirkwood Meadows Dr, Kirkwood, CA 95646",
    "Latitude": 38.684589,
    "Longitude": -120.065379,
    "Website": "http://www.kirkwood.com/"
  },
  {
    "Name": "Kissing Bridge",
    "Summit_Height": 1700,
    "Base_Height": 1150,
    "Number_of_Trails": 39,
    "Number_of_Lifts": 10,
    "Number_of_Parks": 5,
    "Trail_Map": "KissingTrails.jpg",
    "Photos": "",
    "Logo": "KissingLogo.jpg",
    "Address": "10296 State Rd, Glenwood, NY 14069",
    "Latitude": 42.613931,
    "Longitude": -78.653861,
    "Website": "http://www.kbski.com/"
  },
  {
    "Name": "Labrador Mt.",
    "Summit_Height": 1825,
    "Base_Height": 1125,
    "Number_of_Trails": 23,
    "Number_of_Lifts": 4,
    "Number_of_Parks": 1,
    "Trail_Map": "LabradorTrails.jpg",
    "Photos": "",
    "Logo": "LabLogo.jpeg",
    "Address": "6935 NY-91, Truxton, NY 13158",
    "Latitude": 42.741296,
    "Longitude": -76.030066,
    "Website": "https://www.skicny.com/"
  },
  {
    "Name": "Lee Canyon",
    "Summit_Height": 11289,
    "Base_Height": 8510,
    "Number_of_Trails": 30,
    "Number_of_Lifts": 3,
    "Number_of_Parks": 1,
    "Trail_Map": "LeeCanyonTrails.jpg",
    "Photos": "",
    "Logo": "LeeCanyonLogo.jpg",
    "Address": "6725 Lee Canyon Rd, Las Vegas, NV 89124",
    "Latitude": 36.303762,
    "Longitude": -115.679632,
    "Website": "http://www.leecanyonlv.com/site"
  },
  {
    "Name": "Liberty Mountain Resort",
    "Summit_Height": 1190,
    "Base_Height": 570,
    "Number_of_Trails": 16,
    "Number_of_Lifts": 8,
    "Number_of_Parks": 3,
    "Trail_Map": "LibertyTrails.jpg",
    "Photos": "",
    "Logo": "LibertyMountainLogo.jpg",
    "Address": "78 Country Club Trail, Fairfield, PA 17320",
    "Latitude": 39.763657,
    "Longitude": -77.375033,
    "Website": "http://www.libertymountainresort.com/"
  },
  {
    "Name": "Little Switzerland",
    "Summit_Height": 1268,
    "Base_Height": 1068,
    "Number_of_Trails": 18,
    "Number_of_Lifts": 8,
    "Number_of_Parks": 3,
    "Trail_Map": "LittleSwitzerlandTrails.jpg",
    "Photos": "",
    "Logo": "SwissLogo.png",
    "Address": "105 Cedar Creek Rd, Slinger, WI 53086",
    "Latitude": 43.337977,
    "Longitude": -88.278919,
    "Website": "http://www.littleswitz.com/"
  },
  {
    "Name": "Lookout Pass Ski Area",
    "Summit_Height": 5650,
    "Base_Height": 4500,
    "Number_of_Trails": 34,
    "Number_of_Lifts": 4,
    "Number_of_Parks": 2,
    "Trail_Map": "LookoutTrails.jpg",
    "Photos": "",
    "Logo": "LookoutLogo.png",
    "Address": "I-90 Exit 0, Mullan, ID 83846",
    "Latitude": 47.456024,
    "Longitude": -115.697252,
    "Website": "https://skilookout.com/"
  },
  {
    "Name": "Loon Mountain",
    "Summit_Height": 3050,
    "Base_Height": 950,
    "Number_of_Trails": 61,
    "Number_of_Lifts": 12,
    "Number_of_Parks": 6,
    "Trail_Map": "LoonTrails.jpg",
    "Photos": "",
    "Logo": "LoonLogo.jpg",
    "Address": "60 Loon Mountain Rd, Lincoln, NH 03251",
    "Latitude": 44.056539,
    "Longitude": -71.629576,
    "Website": "http://www.loonmtn.com/"
  },
  {
    "Name": "Lost Trail Powder Mountain",
    "Summit_Height": 8200,
    "Base_Height": 6400,
    "Number_of_Trails": 69,
    "Number_of_Lifts": 5,
    "Number_of_Parks": 2,
    "Trail_Map": "LostTrails.jpg",
    "Photos": "",
    "Logo": "LostLogo.jpeg",
    "Address": "9485 US-93, Sula, MT 59871",
    "Latitude": 45.691969,
    "Longitude": -113.952283,
    "Website": "https://losttrail.com/"
  },
  {
    "Name": "Lost Valley",
    "Summit_Height": 495,
    "Base_Height": 255,
    "Number_of_Trails": 16,
    "Number_of_Lifts": 2,
    "Number_of_Parks": 2,
    "Trail_Map": "LostVTrails.jpg",
    "Photos": "",
    "Logo": "LostVLogo.png",
    "Address": "200 Lost Valley Rd, Auburn, ME 04210",
    "Latitude": 44.13607,
    "Longitude": -70.282957,
    "Website": "http://www.lostvalleyski.com/"
  },
  {
    "Name": "Loveland Ski Area",
    "Summit_Height": 13010,
    "Base_Height": 10800,
    "Number_of_Trails": 94,
    "Number_of_Lifts": 10,
    "Number_of_Parks": 1,
    "Trail_Map": "LovelandTrails.jpg",
    "Photos": "",
    "Logo": "LovelandLogo.png",
    "Address": "Arapaho National Forest, Georgetown, CO 80435",
    "Latitude": 39.680037,
    "Longitude": -105.897946,
    "Website": "http://skiloveland.com/"
  },
  {
    "Name": "Lusten Mountains",
    "Summit_Height": 1687,
    "Base_Height": 800,
    "Number_of_Trails": 62,
    "Number_of_Lifts": 8,
    "Number_of_Parks": 5,
    "Trail_Map": "LustenTrails.jpg",
    "Photos": "",
    "Logo": "LustenLogo.png",
    "Address": "467 Ski Hill Rd, Lutsen, MN 55612",
    "Latitude": 47.663269,
    "Longitude": -90.713746,
    "Website": "https://www.lutsen.com/"
  },
  {
    "Name": "Mad River Glen",
    "Summit_Height": 3637,
    "Base_Height": 1600,
    "Number_of_Trails": 45,
    "Number_of_Lifts": 5,
    "Number_of_Parks": "none",
    "Trail_Map": "MadTrails.jpg",
    "Photos": "",
    "Logo": "MadLogo.JPG",
    "Address": "57 Schuss Pass, Waitsfield, VT 05673",
    "Latitude": 44.202446,
    "Longitude": -72.91755,
    "Website": "http://www.madriverglen.com/"
  },
  {
    "Name": "Mad River Mountain",
    "Summit_Height": 1460,
    "Base_Height": 1160,
    "Number_of_Trails": 20,
    "Number_of_Lifts": 12,
    "Number_of_Parks": 4,
    "Trail_Map": "MadRiverTrails.jpg",
    "Photos": "",
    "Logo": "MadRiverLogo.png",
    "Address": "1000 Snow Valley Rd, Zanesfield, OH 43360",
    "Latitude": 40.317018,
    "Longitude": -83.6788,
    "Website": "http://www.skimadriver.com/"
  },
  {
    "Name": "Magic Mountain",
    "Summit_Height": 2850,
    "Base_Height": 1350,
    "Number_of_Trails": 43,
    "Number_of_Lifts": 4,
    "Number_of_Parks": 1,
    "Trail_Map": "MagicTrails.jpg",
    "Photos": "",
    "Logo": "MagicLogo.png",
    "Address": "495 Magic Mtn Access, Londonderry, VT 05148",
    "Latitude": 43.201786,
    "Longitude": -72.772705,
    "Website": "https://www.magicmtn.com/"
  },
  {
    "Name": "Magic Mountain Resort",
    "Summit_Height": 7200,
    "Base_Height": 6500,
    "Number_of_Trails": 11,
    "Number_of_Lifts": 3,
    "Number_of_Parks": "none",
    "Trail_Map": "MagicResortTrails.jpg",
    "Photos": "",
    "Logo": "MagicResortLogo.png",
    "Address": "Rock Creek Rd, Idaho 83334",
    "Latitude": 42.546729,
    "Longitude": -114.306003,
    "Website": "http://www.magicmountainresort.com/"
  },
  {
    "Name": "Mammoth Mountain Ski Area",
    "Summit_Height": 11052,
    "Base_Height": 7952,
    "Number_of_Trails": 151,
    "Number_of_Lifts": 28,
    "Number_of_Parks": 13,
    "Trail_Map": "MammothTrails.jpg",
    "Photos": "",
    "Logo": "MammothLogo.jpeg",
    "Address": "10001 Minaret Rd, Mammoth Lakes, CA 93546",
    "Latitude": 37.65112,
    "Longitude": -119.026691,
    "Website": "https://www.mammothmountain.com/"
  },
  {
    "Name": "Maple Ski Ridge",
    "Summit_Height": 1200,
    "Base_Height": 750,
    "Number_of_Trails": 10,
    "Number_of_Lifts": 3,
    "Number_of_Parks": "none",
    "Trail_Map": "MapleSkiTrails.jpg",
    "Photos": "",
    "Logo": "MapleLogo.gif",
    "Address": "2725 Mariaville Rd, Rotterdam, NY 12306",
    "Latitude": 42.821002,
    "Longitude": -74.030753,
    "Website": "http://www.mapleskiridge.com/"
  },
  {
    "Name": "Marquette Mountain",
    "Summit_Height": 1357,
    "Base_Height": 757,
    "Number_of_Trails": 35,
    "Number_of_Lifts": 4,
    "Number_of_Parks": 3,
    "Trail_Map": "MarquetteTrails.jpg",
    "Photos": "",
    "Logo": "MarquetteLogo.png",
    "Address": "4501 M-553, Marquette, MI 49855",
    "Latitude": 46.510579,
    "Longitude": -87.415039,
    "Website": "http://www.marquettemountain.com/"
  },
  {
    "Name": "Massanutten",
    "Summit_Height": 2925,
    "Base_Height": 1750,
    "Number_of_Trails": 14,
    "Number_of_Lifts": 8,
    "Number_of_Parks": 2,
    "Trail_Map": "MassanuttenTrails.jpg",
    "Photos": "",
    "Logo": "MassanuttenLogo.png",
    "Address": "1822 Resort Dr, McGaheysville, VA 22840",
    "Latitude": 38.406572,
    "Longitude": -78.716122,
    "Website": "https://www.massresort.com"
  },
  {
    "Name": "Maverick Mountain",
    "Summit_Height": 8520,
    "Base_Height": 6500,
    "Number_of_Trails": 22,
    "Number_of_Lifts": 2,
    "Number_of_Parks": "none",
    "Trail_Map": "MaverickTrails.jpg",
    "Photos": "",
    "Logo": "MaverickLogo.png",
    "Address": "1600 Maverick Mountain Rd, Polaris, MT 59746",
    "Latitude": 45.433923,
    "Longitude": -113.128563,
    "Website": "http://www.skimaverick.com/"
  },
  {
    "Name": "McCauley Mountain Ski Area",
    "Summit_Height": 2250,
    "Base_Height": 1562,
    "Number_of_Trails": 23,
    "Number_of_Lifts": 5,
    "Number_of_Parks": 1,
    "Trail_Map": "McCauleyTrails.jpg",
    "Photos": "",
    "Logo": "McCauleyLogo.png",
    "Address": "300 McCauley Rd, Old Forge, NY 13420",
    "Latitude": 43.697195,
    "Longitude": -74.966159,
    "Website": "http://www.mccauleyny.com/"
  },
  {
    "Name": "Meadowlark Ski Lodge",
    "Summit_Height": 9500,
    "Base_Height": 8500,
    "Number_of_Trails": 14,
    "Number_of_Lifts": 3,
    "Number_of_Parks": 1,
    "Trail_Map": "MeadowlarkTrails.jpg",
    "Photos": "",
    "Logo": "Meadowlarklogo.png",
    "Address": "426 US-16, Ten Sleep, WY 82442",
    "Latitude": 44.034083,
    "Longitude": -107.445264,
    "Website": "http://www.lodgesofthebighorns.com/meadowlark-ski-lodge-wyoming.php"
  },
  {
    "Name": "Mission Ridge",
    "Summit_Height": 6820,
    "Base_Height": 4570,
    "Number_of_Trails": 56,
    "Number_of_Lifts": 6,
    "Number_of_Parks": 3,
    "Trail_Map": "MissionTrails.jpg",
    "Photos": "",
    "Logo": "MissionRidgeLogo.png",
    "Address": "7500 Mission Ridge Rd, Wenatchee, WA 98801",
    "Latitude": 47.292466,
    "Longitude": -120.399871,
    "Website": "https://www.missionridge.com/"
  },
  {
    "Name": "Mohawk Mountain",
    "Summit_Height": 1600,
    "Base_Height": 950,
    "Number_of_Trails": 26,
    "Number_of_Lifts": 8,
    "Number_of_Parks": "none",
    "Trail_Map": "MohawkMountainTrails.jpg",
    "Photos": "",
    "Logo": "MohawkLogo.png",
    "Address": "46 Great Hollow Road, Cornwall, CT 06753",
    "Latitude": 41.845251,
    "Longitude": -73.313972,
    "Website": "http://www.mohawkmtn.com/"
  },
  {
    "Name": "Monarch Mountain",
    "Summit_Height": 11952,
    "Base_Height": 10789,
    "Number_of_Trails": 64,
    "Number_of_Lifts": 6,
    "Number_of_Parks": 2,
    "Trail_Map": "MonarchTrails.jpg",
    "Photos": "",
    "Logo": "MonarchLogo.png",
    "Address": "23715 US-50, Monarch, CO 81227",
    "Latitude": 38.511435,
    "Longitude": -106.333046,
    "Website": "http://www.skimonarch.com/"
  },
  {
    "Name": "Montage Mountain",
    "Summit_Height": 1960,
    "Base_Height": 960,
    "Number_of_Trails": 26,
    "Number_of_Lifts": 7,
    "Number_of_Parks": 1,
    "Trail_Map": "MontageTrails.jpg",
    "Photos": "",
    "Logo": "MontageLogo.jpeg",
    "Address": "1000 Montage Mountain Rd, Scranton, PA 18507",
    "Latitude": 41.347926,
    "Longitude": -75.66375,
    "Website": "http://www.montagemountainresorts.com/"
  },
  {
    "Name": "Montana Snowbowl",
    "Summit_Height": 7600,
    "Base_Height": 5000,
    "Number_of_Trails": 37,
    "Number_of_Lifts": 4,
    "Number_of_Parks": "none",
    "Trail_Map": "MontanaSnowbowlTrails.jpg",
    "Photos": "",
    "Logo": "MontanaLogo.jpeg",
    "Address": "Snow Bowl Rd, Missoula, MT 59808",
    "Latitude": 47.013501,
    "Longitude": -113.999414,
    "Website": "http://www.montanasnowbowl.com/"
  },
  {
    "Name": "Mont Ripley",
    "Summit_Height": 1140,
    "Base_Height": 700,
    "Number_of_Trails": 25,
    "Number_of_Lifts": 4,
    "Number_of_Parks": 2,
    "Trail_Map": "MontRipleyTrails.jpg",
    "Photos": "",
    "Logo": "MontRipleyLogo.jpg",
    "Address": "49051 Ski Hill, Hancock, MI 49930",
    "Latitude": 47.12755,
    "Longitude": -88.560009,
    "Website": "http://www.mtu.edu/mont-ripley/"
  },
  {
    "Name": "Mountain Creek Resort",
    "Summit_Height": 1480,
    "Base_Height": 440,
    "Number_of_Trails": 46,
    "Number_of_Lifts": 10,
    "Number_of_Parks": 9,
    "Trail_Map": "MountainCreekTrails.jpg",
    "Photos": "",
    "Logo": "MountainCreekLogo.png",
    "Address": "200 Route 94, Vernon Township, NJ 07462",
    "Latitude": 41.237439,
    "Longitude": -74.397541,
    "Website": "http://www.mountaincreek.com/"
  },
  {
    "Name": "Mountain High",
    "Summit_Height": 8200,
    "Base_Height": 6600,
    "Number_of_Trails": 59,
    "Number_of_Lifts": 14,
    "Number_of_Parks": 1,
    "Trail_Map": "MountainHighTrails.jpg",
    "Photos": "",
    "Logo": "MountainHighLogo.jpg",
    "Address": "24510 CA-2, Wrightwood, CA 92397",
    "Latitude": 34.376942,
    "Longitude": -117.691524,
    "Website": "http://www.mthigh.com/site"
  },
  {
    "Name": "Mount Bohemia",
    "Summit_Height": 1500,
    "Base_Height": 600,
    "Number_of_Trails": 102,
    "Number_of_Lifts": 2,
    "Number_of_Parks": "none",
    "Trail_Map": "MountBohemiaTrails.jpg",
    "Photos": "",
    "Logo": "BohemiaLogo.png",
    "Address": "6532 Gay Lac La Belle Rd, Mohawk, MI 49950",
    "Latitude": 47.388588,
    "Longitude": -88.022171,
    "Website": "http://www.mtbohemia.com/"
  },
  {
    "Name": "Mount Holly",
    "Summit_Height": 1105,
    "Base_Height": 755,
    "Number_of_Trails": 19,
    "Number_of_Lifts": 13,
    "Number_of_Parks": 2,
    "Trail_Map": "HollyTrails.jpg",
    "Photos": "",
    "Logo": "MountHollyLogo.jpg",
    "Address": "13536 Dixie Hwy, Holly, MI 48442",
    "Latitude": 42.831192,
    "Longitude": -83.562093,
    "Website": "http://skimtholly.com/"
  },
  {
    "Name": "Mount Kato Ski Area",
    "Summit_Height": 540,
    "Base_Height": 300,
    "Number_of_Trails": 19,
    "Number_of_Lifts": 10,
    "Number_of_Parks": 4,
    "Trail_Map": "MountKatoTrails.jpg",
    "Photos": "",
    "Logo": "KatoLogo.png",
    "Address": "20461 MN-66, Mankato, MN 56001",
    "Latitude": 44.133227,
    "Longitude": -94.033408,
    "Website": "https://www.mountkato.com/"
  },
  {
    "Name": "Mount La Crosse",
    "Summit_Height": 1110,
    "Base_Height": 593,
    "Number_of_Trails": 19,
    "Number_of_Lifts": 4,
    "Number_of_Parks": 1,
    "Trail_Map": "LaCrosseTrails.jpg",
    "Photos": "",
    "Logo": "LaCrosseLogo.png",
    "Address": "Old Town Hall Rd, La Crosse, WI 54601",
    "Latitude": 43.747682,
    "Longitude": -91.191023,
    "Website": "http://mtlacrosse.com/"
  },
  {
    "Name": "Mount Peter Ski Area",
    "Summit_Height": 1250,
    "Base_Height": 750,
    "Number_of_Trails": 14,
    "Number_of_Lifts": 5,
    "Number_of_Parks": 2,
    "Trail_Map": "PeterTrails.jpg",
    "Photos": "",
    "Logo": "PeterLogo.png",
    "Address": "51 Old Mt Peter Rd, Warwick, NY 10990",
    "Latitude": 41.247789,
    "Longitude": -74.295194,
    "Website": "http://www.mtpeter.com/"
  },
  {
    "Name": "Mount Pleasant of Edinboro",
    "Summit_Height": 1540,
    "Base_Height": 1200,
    "Number_of_Trails": 10,
    "Number_of_Lifts": 2,
    "Number_of_Parks": "none",
    "Trail_Map": "PleasantTrails.jpg",
    "Photos": "",
    "Logo": "PleasantLogo.png",
    "Address": "14510 Mt Pleasant Rd, Cambridge Springs, PA 16403",
    "Latitude": 41.850893,
    "Longitude": -80.070502,
    "Website": "http://www.skimountpleasant.com/"
  },
  {
    "Name": "Mount Snow",
    "Summit_Height": 3600,
    "Base_Height": 1900,
    "Number_of_Trails": 86,
    "Number_of_Lifts": 20,
    "Number_of_Parks": 8,
    "Trail_Map": "MountSnowTrails.jpg",
    "Photos": "",
    "Logo": "MountSnowLogo.png",
    "Address": "89 Grand Summit Way, West Dover, VT 05356",
    "Latitude": 42.965978,
    "Longitude": -72.894132,
    "Website": "https://www.mountsnow.com/"
  },
  {
    "Name": "Mount Southington Ski Area",
    "Summit_Height": 525,
    "Base_Height": 100,
    "Number_of_Trails": 14,
    "Number_of_Lifts": 7,
    "Number_of_Parks": 2,
    "Trail_Map": "SouthingtonTrails.jpg",
    "Photos": "",
    "Logo": "SouthingtonLogo.png",
    "Address": "396 Mt Vernon Rd, Plantsville, CT 06479",
    "Latitude": 41.58206,
    "Longitude": -72.92492,
    "Website": "http://mountsouthington.com/"
  },
  {
    "Name": "Mount Sunapee",
    "Summit_Height": 2742,
    "Base_Height": 1232,
    "Number_of_Trails": 66,
    "Number_of_Lifts": 10,
    "Number_of_Parks": 4,
    "Trail_Map": "SunapeeTrails.jpg",
    "Photos": "",
    "Logo": "SunapeeLogo.jpeg",
    "Address": "1398 Route 103, Newbury, NH 03255",
    "Latitude": 43.341297,
    "Longitude": -72.076423,
    "Website": "http://www.mountsunapee.com/"
  },
  {
    "Name": "Mt. Abram Ski Resort",
    "Summit_Height": 2250,
    "Base_Height": 1050,
    "Number_of_Trails": 54,
    "Number_of_Lifts": 5,
    "Number_of_Parks": 1,
    "Trail_Map": "MtAbramTrails.jpg",
    "Photos": "",
    "Logo": "AbramLogo.jpeg",
    "Address": "308 Howe Hill Rd, Greenwood, ME 04255",
    "Latitude": 44.379796,
    "Longitude": -70.706865,
    "Website": "http://www.mtabram.com/"
  },
  {
    "Name": "Mt. Bachelor",
    "Summit_Height": 9064,
    "Base_Height": 5700,
    "Number_of_Trails": 101,
    "Number_of_Lifts": 13,
    "Number_of_Parks": 5,
    "Trail_Map": "MtBachelorTrails.jpg",
    "Photos": "",
    "Logo": "MtBachelorLogo.jpeg",
    "Address": "13000 Century Drive, Bend, OR 97702",
    "Latitude": 43.997116,
    "Longitude": -121.404549,
    "Website": "https://www.mtbachelor.com/"
  },
  {
    "Name": "Mt. Baker",
    "Summit_Height": 5089,
    "Base_Height": 3589,
    "Number_of_Trails": 38,
    "Number_of_Lifts": 8,
    "Number_of_Parks": "none",
    "Trail_Map": "BakerTrails.jpg",
    "Photos": "",
    "Logo": "MtBakerLogo.png",
    "Address": "Mt Baker Hwy, Deming, WA 98244",
    "Latitude": 48.889589,
    "Longitude": -121.945882,
    "Website": "https://www.mtbaker.us/"
  },
  {
    "Name": "Mt. Baldy",
    "Summit_Height": 8600,
    "Base_Height": 6500,
    "Number_of_Trails": 26,
    "Number_of_Lifts": 4,
    "Number_of_Parks": "none",
    "Trail_Map": "MtBaldyTrails.jpg",
    "Photos": "",
    "Logo": "MtBaldyLogo.jpg",
    "Address": "8401 Mt Baldy Rd, Mt Baldy, CA 91759",
    "Latitude": 34.270084,
    "Longitude": -117.621902,
    "Website": "https://mtbaldyskilifts.com/"
  },
  {
    "Name": "Mt. Brighton",
    "Summit_Height": 1330,
    "Base_Height": 1100,
    "Number_of_Trails": 24,
    "Number_of_Lifts": 12,
    "Number_of_Parks": 5,
    "Trail_Map": "MtBrightonTrails.jpg",
    "Photos": "",
    "Logo": "MtBrightonLogo.png",
    "Address": "4141 Bauer Rd, Brighton, MI 48116",
    "Latitude": 42.540783,
    "Longitude": -83.811553,
    "Website": "http://www.mtbrighton.com/"
  },
  {
    "Name": "Mt. Crescent Ski Area",
    "Summit_Height": 1500,
    "Base_Height": 1200,
    "Number_of_Trails": 11,
    "Number_of_Lifts": 2,
    "Number_of_Parks": 1,
    "Trail_Map": "MtCrescentTrails.jpg",
    "Photos": "",
    "Logo": "MtCrescentLogo.jpeg",
    "Address": "17026 Snowhill Ln, Honey Creek, IA 51542",
    "Latitude": 41.391775,
    "Longitude": -95.857191,
    "Website": "http://www.skicrescent.com/"
  },
  {
    "Name": "Mt. Holiday Ski Area",
    "Summit_Height": 440,
    "Base_Height": 240,
    "Number_of_Trails": 12,
    "Number_of_Lifts": 4,
    "Number_of_Parks": 1,
    "Trail_Map": "MtHolidayTrails.jpg",
    "Photos": "",
    "Logo": "MtHolidayLogo.png",
    "Address": "3100 Holiday Rd, Traverse City, MI 49686",
    "Latitude": 44.744189,
    "Longitude": -85.514064,
    "Website": "http://mt-holiday.com/"
  },
  {
    "Name": "Mt. Hood Meadows",
    "Summit_Height": 7300,
    "Base_Height": 4522,
    "Number_of_Trails": 85,
    "Number_of_Lifts": 14,
    "Number_of_Parks": 6,
    "Trail_Map": "MtHoodMeadowsTrails.jpg",
    "Photos": "",
    "Logo": "MtHoodMeadowsLogo.png",
    "Address": "14040 OR-35, Mt Hood, OR 97041",
    "Latitude": 45.331802,
    "Longitude": -121.665075,
    "Website": "https://www.skihood.com/"
  },
  {
    "Name": "Mt. Hood Ski Bowl",
    "Summit_Height": 5100,
    "Base_Height": 3600,
    "Number_of_Trails": 65,
    "Number_of_Lifts": 9,
    "Number_of_Parks": 3,
    "Trail_Map": "HoodSkiBowlTrails.jpg",
    "Photos": "",
    "Logo": "HoodSkiBowlLogo.png",
    "Address": "87000 U.S. 26, Government Camp, OR 97028",
    "Latitude": 45.301908,
    "Longitude": -121.773296,
    "Website": "http://www.skibowl.com/winter/"
  },
  {
    "Name": "Mt. Jefferson",
    "Summit_Height": 752,
    "Base_Height": 351,
    "Number_of_Trails": 10,
    "Number_of_Lifts": 3,
    "Number_of_Parks": 1,
    "Trail_Map": "MtJeffersonTrails.jpg",
    "Photos": "",
    "Logo": "MtJeffersonLogo.png",
    "Address": "Mt. Jefferson Ski Area, Route 6, Lee, Maine",
    "Latitude": 45.353985,
    "Longitude": -68.283034,
    "Website": "http://skimtjefferson.com/"
  },
  {
    "Name": "Mt. Rose Ski Tahoe",
    "Summit_Height": 9700,
    "Base_Height": 8260,
    "Number_of_Trails": 60,
    "Number_of_Lifts": 8,
    "Number_of_Parks": 3,
    "Trail_Map": "MtRoseTrails.jpg",
    "Photos": "",
    "Logo": "MtRoseLogo.png",
    "Address": "22222 Mt Rose Hwy, Reno, NV 89511",
    "Latitude": 39.328614,
    "Longitude": -119.885304,
    "Website": "http://skirose.com/"
  },
  {
    "Name": "Mt. Shasta Ski Park",
    "Summit_Height": 6889,
    "Base_Height": 5500,
    "Number_of_Trails": 32,
    "Number_of_Lifts": 4,
    "Number_of_Parks": 3,
    "Trail_Map": "MtShastaTrails.jpg",
    "Photos": "",
    "Logo": "MtShastaLogo.png",
    "Address": "4500 Ski Park Hyway, McCloud, CA 96057",
    "Latitude": 41.321098,
    "Longitude": -122.203509,
    "Website": "https://www.skipark.com/"
  },
  {
    "Name": "Mt. Spokane Ski and Snowboard Park",
    "Summit_Height": 5889,
    "Base_Height": 3818,
    "Number_of_Trails": 51,
    "Number_of_Lifts": 5,
    "Number_of_Parks": 3,
    "Trail_Map": "MtSpokaneTrails.jpg",
    "Photos": "",
    "Logo": "MtSpokaneLogo.jpeg",
    "Address": "29500 N Mt Spokane Park Dr, Mead, WA 99021",
    "Latitude": 47.921438,
    "Longitude": -117.096433,
    "Website": "http://www.mtspokane.com/"
  },
  {
    "Name": "Mulligan's Hollow Ski Bowl",
    "Summit_Height": 700,
    "Base_Height": 570,
    "Number_of_Trails": 6,
    "Number_of_Lifts": 5,
    "Number_of_Parks": "none",
    "Trail_Map": "MulligansTrails.jpg",
    "Photos": "",
    "Logo": "MulligansLogo.png",
    "Address": "600 Y Dr, Grand Haven, MI 49417",
    "Latitude": 43.048964,
    "Longitude": -86.225962,
    "Website": "http://www.mulliganshollow.com/"
  },
  {
    "Name": "Nashoba Valley",
    "Summit_Height": 440,
    "Base_Height": 200,
    "Number_of_Trails": 17,
    "Number_of_Lifts": 11,
    "Number_of_Parks": 2,
    "Trail_Map": "NashobaTrails.jpg",
    "Photos": "",
    "Logo": "NashobaLogo.jpg",
    "Address": "79 Powers Rd, Westford, MA 01886",
    "Latitude": 42.542333,
    "Longitude": -71.444619,
    "Website": "https://www.skinashoba.com/"
  },
  {
    "Name": "New Hermon Mountain",
    "Summit_Height": 450,
    "Base_Height": 100,
    "Number_of_Trails": 20,
    "Number_of_Lifts": 3,
    "Number_of_Parks": "none",
    "Trail_Map": "NewHermonTrails.jpg",
    "Photos": "",
    "Logo": "NewHermonLogo.jpg",
    "Address": "441 Newburg Rd, Hermon, ME 04401",
    "Latitude": 44.780715,
    "Longitude": -68.955642,
    "Website": "http://www.skihermonmountain.com/"
  },
  {
    "Name": "Nordic Mountain",
    "Summit_Height": 1137,
    "Base_Height": 872,
    "Number_of_Trails": 18,
    "Number_of_Lifts": 7,
    "Number_of_Parks": 3,
    "Trail_Map": "NordicTrails.jpg",
    "Photos": "",
    "Logo": "NordicLogo.png",
    "Address": "W5806 County Rd W, Wild Rose, WI 54984",
    "Latitude": 44.118588,
    "Longitude": -89.175703,
    "Website": "http://www.nordicmountain.com/"
  },
  {
    "Name": "Nordic Valley Resort",
    "Summit_Height": 6400,
    "Base_Height": 5439,
    "Number_of_Trails": 22,
    "Number_of_Lifts": 4,
    "Number_of_Parks": 1,
    "Trail_Map": "NordicValleyTrails.jpg",
    "Photos": "",
    "Logo": "NordicValleyLogo.png",
    "Address": "3567 Nordic Valley Way, Eden, UT 84310",
    "Latitude": 41.310101,
    "Longitude": -111.864812,
    "Website": "http://nordicvalley.com/"
  },
  {
    "Name": "Northstar California",
    "Summit_Height": 8610,
    "Base_Height": 6329,
    "Number_of_Trails": 100,
    "Number_of_Lifts": 20,
    "Number_of_Parks": 9,
    "Trail_Map": "NorthstarTrails.jpg",
    "Photos": "",
    "Logo": "NorthstarLogo.png",
    "Address": "5001 Northstar Dr, Truckee, CA 96161",
    "Latitude": 39.274971,
    "Longitude": -120.120794,
    "Website": "http://www.northstarcalifornia.com/"
  },
  {
    "Name": "Norway Mountain",
    "Summit_Height": 1335,
    "Base_Height": 835,
    "Number_of_Trails": 17,
    "Number_of_Lifts": 6,
    "Number_of_Parks": 2,
    "Trail_Map": "NorwayTrails.jpg",
    "Photos": "",
    "Logo": "NorwayLogo.JPG",
    "Address": "N2090 Brier Mountain Rd, Norway, MI 49870",
    "Latitude": 45.788832,
    "Longitude": -87.869821,
    "Website": "http://www.norwaymountain.com/"
  },
  {
    "Name": "Nubs Nob Ski Area",
    "Summit_Height": 1337,
    "Base_Height": 911,
    "Number_of_Trails": 53,
    "Number_of_Lifts": 10,
    "Number_of_Parks": 3,
    "Trail_Map": "NubsNobTrails.jpg",
    "Photos": "",
    "Logo": "NubsNobLogo.png",
    "Address": "500 Nubs Nob Rd, Harbor Springs, MI 49740",
    "Latitude": 45.471833,
    "Longitude": -84.904148,
    "Website": "https://www.nubsnob.com/"
  },
  {
    "Name": "Oak Mountain",
    "Summit_Height": 2400,
    "Base_Height": 1750,
    "Number_of_Trails": 22,
    "Number_of_Lifts": 3,
    "Number_of_Parks": 1,
    "Trail_Map": "OakTrails.jpg",
    "Photos": "",
    "Logo": "OakLogo.png",
    "Address": "141 Novosel Way, Speculator, NY 12164",
    "Latitude": 43.518115,
    "Longitude": -74.362215,
    "Website": "http://oakmountainski.com/"
  },
  {
    "Name": "Ober Gatlinburg Ski Resort",
    "Summit_Height": 3300,
    "Base_Height": 2700,
    "Number_of_Trails": 10,
    "Number_of_Lifts": 4,
    "Number_of_Parks": 1,
    "Trail_Map": "OberTrails.jpg",
    "Photos": "",
    "Logo": "OberLogo.png",
    "Address": "1001 Parkway #2, Gatlinburg, TN 37738",
    "Latitude": 35.708897,
    "Longitude": -83.521394,
    "Website": "http://obergatlinburg.com/"
  },
  {
    "Name": "Okemo Mountain Resort",
    "Summit_Height": 3343,
    "Base_Height": 1143,
    "Number_of_Trails": 121,
    "Number_of_Lifts": 20,
    "Number_of_Parks": 9,
    "Trail_Map": "OkemoTrails.jpg",
    "Photos": "",
    "Logo": "OkemoLogo.png",
    "Address": "77 Okemo Ridge Rd, Ludlow, VT 05149",
    "Latitude": 43.40161,
    "Longitude": -72.716386,
    "Website": "https://www.okemo.com/"
  },
  {
    "Name": "Otis Ridge Ski Area",
    "Summit_Height": 1700,
    "Base_Height": 1300,
    "Number_of_Trails": 11,
    "Number_of_Lifts": 4,
    "Number_of_Parks": 1,
    "Trail_Map": "OtisRidgeTrails.jpg",
    "Photos": "",
    "Logo": "OtisRidgeLogo.png",
    "Address": "159 Monterey Rd, Otis, MA 01253",
    "Latitude": 42.196749,
    "Longitude": -73.100128,
    "Website": "http://www.otisridge.com/"
  },
  {
    "Name": "Pajarito Mountain Ski Area",
    "Summit_Height": 10441,
    "Base_Height": 9031,
    "Number_of_Trails": 45,
    "Number_of_Lifts": 6,
    "Number_of_Parks": 2,
    "Trail_Map": "PajaritoTrails.jpg",
    "Photos": "",
    "Logo": "PajaritoLogo.png",
    "Address": "397 Camp May Rd, Los Alamos, NM 87544",
    "Latitude": 35.894821,
    "Longitude": -106.390657,
    "Website": "https://skipajarito.com/"
  },
  {
    "Name": "Paoli Peaks",
    "Summit_Height": 900,
    "Base_Height": 600,
    "Number_of_Trails": 15,
    "Number_of_Lifts": 8,
    "Number_of_Parks": 2,
    "Trail_Map": "PaoliTrails.jpg",
    "Photos": "",
    "Logo": "PaoliPeaksLogo.jpg",
    "Address": "2798 W Co Rd 25 S, Paoli, IN 47454",
    "Latitude": 38.555008,
    "Longitude": -86.519454,
    "Website": "http://www.paolipeaks.com/index.html"
  },
  {
    "Name": "Park City",
    "Summit_Height": 10000,
    "Base_Height": 6800,
    "Number_of_Trails": 334,
    "Number_of_Lifts": 41,
    "Number_of_Parks": 6,
    "Trail_Map": "ParkCityTrails.jpg",
    "Photos": "",
    "Logo": "ParkCityLogo.png",
    "Address": "1345 Lowell Ave, Park City, UT 84060",
    "Latitude": 40.651465,
    "Longitude": -111.507807,
    "Website": "http://www.parkcitymountain.com/"
  },
  {
    "Name": "Pats Peak",
    "Summit_Height": 1460,
    "Base_Height": 690,
    "Number_of_Trails": 28,
    "Number_of_Lifts": 11,
    "Number_of_Parks": 3,
    "Trail_Map": "PatsPeakTrails.jpg",
    "Photos": "",
    "Logo": "PatsPeakLogo.jpeg",
    "Address": "686 Flanders Rd, Henniker, NH 03242",
    "Latitude": 43.163649,
    "Longitude": -71.797869,
    "Website": "https://www.patspeak.com/"
  },
  {
    "Name": "Pebble Creek Ski Area",
    "Summit_Height": 8560,
    "Base_Height": 6360,
    "Number_of_Trails": 54,
    "Number_of_Lifts": 3,
    "Number_of_Parks": 2,
    "Trail_Map": "PebbleCreekTrails.jpg",
    "Photos": "",
    "Logo": "PebbleCreekLogo.png",
    "Address": "3340 E Green Canyon Rd, Inkom, ID 83245",
    "Latitude": 42.778486,
    "Longitude": -112.15929,
    "Website": "http://pebblecreekskiarea.com/"
  },
  {
    "Name": "Peek'n Peak",
    "Summit_Height": 1800,
    "Base_Height": 1400,
    "Number_of_Trails": 27,
    "Number_of_Lifts": 10,
    "Number_of_Parks": 5,
    "Trail_Map": "PeekNPeakTrails.jpg",
    "Photos": "",
    "Logo": "PeakNPeakLogo.png",
    "Address": "1405 Old Rd, Clymer, NY 14724",
    "Latitude": 42.062497,
    "Longitude": -79.735528,
    "Website": "http://www.pknpk.com/"
  },
  {
    "Name": "Perfect North Slopes",
    "Summit_Height": 800,
    "Base_Height": 400,
    "Number_of_Trails": 23,
    "Number_of_Lifts": 11,
    "Number_of_Parks": 2,
    "Trail_Map": "PerfectTrails.jpg",
    "Photos": "",
    "Logo": "PerfectNorthLogo.jpeg",
    "Address": "19074 Perfect Pl Ln, Lawrenceburg, IN 47025",
    "Latitude": 39.150955,
    "Longitude": -84.885881,
    "Website": "http://www.perfectnorth.com/"
  },
  {
    "Name": "Pico Mountain",
    "Summit_Height": 3966,
    "Base_Height": 2000,
    "Number_of_Trails": 57,
    "Number_of_Lifts": 7,
    "Number_of_Parks": 1,
    "Trail_Map": "PicoTrails.jpg",
    "Photos": "",
    "Logo": "PicoLogo.jpg",
    "Address": "73 Alpine Dr, Mendon, VT 05751",
    "Latitude": 43.662158,
    "Longitude": -72.8427,
    "Website": "http://www.picomountain.com/site/index.html"
  },
  {
    "Name": "Pine Knob Ski Resort",
    "Summit_Height": 1307,
    "Base_Height": 1008,
    "Number_of_Trails": 14,
    "Number_of_Lifts": 6,
    "Number_of_Parks": 3,
    "Trail_Map": "PineKnobTrails.jpg",
    "Photos": "",
    "Logo": "PineKnobLogo.png",
    "Address": "7778 Sashabaw Rd, Village of Clarkston, MI 48348",
    "Latitude": 42.751089,
    "Longitude": -83.380313,
    "Website": "https://skipineknob.com/"
  },
  {
    "Name": "Pine Mountain",
    "Summit_Height": 1650,
    "Base_Height": 1150,
    "Number_of_Trails": 27,
    "Number_of_Lifts": 5,
    "Number_of_Parks": 3,
    "Trail_Map": "PineMountainTrails.jpg",
    "Photos": "",
    "Logo": "PineMountainLogo.jpeg",
    "Address": "N3332 Pine Mountain Rd, Iron Mountain, MI 49801",
    "Latitude": 45.839253,
    "Longitude": -88.088277,
    "Website": "http://www.pinemountainresort.com/"
  },
  {
    "Name": "Plattekill Mountain",
    "Summit_Height": 3500,
    "Base_Height": 2400,
    "Number_of_Trails": 38,
    "Number_of_Lifts": 4,
    "Number_of_Parks": 1,
    "Trail_Map": "PlattekillTrails.jpg",
    "Photos": "",
    "Logo": "PlatekillLogo.png",
    "Address": "469 Plattekill Mountain Rd, Roxbury, NY 12474",
    "Latitude": 42.289174,
    "Longitude": -74.653097,
    "Website": "http://www.plattekill.com/"
  },
  {
    "Name": "Pomerelle Mountain Resort",
    "Summit_Height": 9000,
    "Base_Height": 8000,
    "Number_of_Trails": 24,
    "Number_of_Lifts": 3,
    "Number_of_Parks": 2,
    "Trail_Map": "PomerelleTrails.jpg",
    "Photos": "",
    "Logo": "PomerelleLogo.jpeg",
    "Address": "961 Howell Canyon Rd, Malta, ID 83342",
    "Latitude": 42.317987,
    "Longitude": -113.607752,
    "Website": "http://www.pomerelle.com/"
  },
  {
    "Name": "Powderhorn",
    "Summit_Height": 9850,
    "Base_Height": 8200,
    "Number_of_Trails": 42,
    "Number_of_Lifts": 4,
    "Number_of_Parks": 2,
    "Trail_Map": "PowderhornTrails.jpg",
    "Photos": "",
    "Logo": "PowderhornLogo.jpg",
    "Address": "48338 Powderhorn Rd, Mesa, CO 81643",
    "Latitude": 39.069381,
    "Longitude": -108.15408,
    "Website": "http://www.powderhorn.com/"
  },
  {
    "Name": "Powder Mountain",
    "Summit_Height": 9422,
    "Base_Height": 6900,
    "Number_of_Trails": 144,
    "Number_of_Lifts": 9,
    "Number_of_Parks": 2,
    "Trail_Map": "PowderMountainTrails.jpg",
    "Photos": "",
    "Logo": "PowderMountainLogo.gif",
    "Address": "6965 E Powder Mountain Rd, Eden, UT 84310",
    "Latitude": 41.382337,
    "Longitude": -111.763867,
    "Website": "http://www.powdermountain.com/"
  },
  {
    "Name": "Powder Ridge Park",
    "Summit_Height": 720,
    "Base_Height": 170,
    "Number_of_Trails": 19,
    "Number_of_Lifts": 5,
    "Number_of_Parks": 4,
    "Trail_Map": "PowderRidgeTrails.jpg",
    "Photos": "",
    "Logo": "PowderRidgeLogo.png",
    "Address": "99 Powder Hill Road, Middlefield, CT 06455",
    "Latitude": 41.503782,
    "Longitude": -72.729689,
    "Website": "http://powderridgepark.com/"
  },
  {
    "Name": "Powder Ridge Ski Area",
    "Summit_Height": 790,
    "Base_Height": 500,
    "Number_of_Trails": 15,
    "Number_of_Lifts": 6,
    "Number_of_Parks": 3,
    "Trail_Map": "PowderRidgeSkiTrails.jpg",
    "Photos": "",
    "Logo": "PowderRidgeSkiLogo.jpg",
    "Address": "15015 93rd Ave, Kimball, MN 55353",
    "Latitude": 45.343555,
    "Longitude": -94.305287,
    "Website": "http://www.powderridge.com/"
  },
  {
    "Name": "Purgatory",
    "Summit_Height": 10822,
    "Base_Height": 8793,
    "Number_of_Trails": 94,
    "Number_of_Lifts": 11,
    "Number_of_Parks": 5,
    "Trail_Map": "PurgatoryTrails.jpg",
    "Photos": "",
    "Logo": "PurgatoryLogo.png",
    "Address": "1 Skier Pl, Durango, CO 81301",
    "Latitude": 37.630849,
    "Longitude": -107.814231,
    "Website": "https://www.purgatoryresort.com/"
  },
  {
    "Name": "Ragged Mountain Resort",
    "Summit_Height": 2250,
    "Base_Height": 1000,
    "Number_of_Trails": 56,
    "Number_of_Lifts": 7,
    "Number_of_Parks": 3,
    "Trail_Map": "RaggedTrails.jpg",
    "Photos": "",
    "Logo": "RaggedLogo.png",
    "Address": "620 Ragged Mountain Rd, Danbury, NH 03230",
    "Latitude": 43.503231,
    "Longitude": -71.842701,
    "Website": "http://raggedmountainresort.com/"
  },
  {
    "Name": "Red Lodge Mountain",
    "Summit_Height": 9416,
    "Base_Height": 7016,
    "Number_of_Trails": 71,
    "Number_of_Lifts": 7,
    "Number_of_Parks": 2,
    "Trail_Map": "RedLodgeTrails.jpg",
    "Photos": "",
    "Logo": "RedLodgeLogo.png",
    "Address": "305 Ski Run Rd, Red Lodge, MT 59068",
    "Latitude": 45.190808,
    "Longitude": -109.336417,
    "Website": "http://www.redlodgemountain.com/"
  },
  {
    "Name": "Red River",
    "Summit_Height": 10350,
    "Base_Height": 8750,
    "Number_of_Trails": 60,
    "Number_of_Lifts": 7,
    "Number_of_Parks": 3,
    "Trail_Map": "RedRiverTrails.jpg",
    "Photos": "",
    "Logo": "RedRiverLogo.jpg",
    "Address": "400 Pioneer Rd, Red River, NM 87558",
    "Latitude": 36.708455,
    "Longitude": -105.411644,
    "Website": "http://www.redriverskiarea.com/"
  },
  {
    "Name": "Roundtop Mountain Resort",
    "Summit_Height": 1400,
    "Base_Height": 800,
    "Number_of_Trails": 20,
    "Number_of_Lifts": 8,
    "Number_of_Parks": 2,
    "Trail_Map": "RoundtopTrails.jpg",
    "Photos": "",
    "Logo": "RoundtopLogo.jpeg",
    "Address": "925 Roundtop Rd, Lewisberry, PA 17339",
    "Latitude": 40.109451,
    "Longitude": -76.927549,
    "Website": "https://www.skiroundtop.com/"
  },
  {
    "Name": "Royal Mountain Ski Area",
    "Summit_Height": 1800,
    "Base_Height": 1250,
    "Number_of_Trails": 14,
    "Number_of_Lifts": 3,
    "Number_of_Parks": "none",
    "Trail_Map": "RoyalMountainTrails.jpg",
    "Photos": "",
    "Logo": "RoyalMountainLogo.png",
    "Address": "3072 NY-10,Caroga Lake, NY 12032",
    "Latitude": 43.082412,
    "Longitude": -74.500202,
    "Website": "http://royalmountain.com/"
  },
  {
    "Name": "Saddleback Inc.",
    "Summit_Height": 4120,
    "Base_Height": 2460,
    "Number_of_Trails": 66,
    "Number_of_Lifts": 5,
    "Number_of_Parks": 2,
    "Trail_Map": "SaddlebackTrails.jpg",
    "Photos": "",
    "Logo": "SaddlebackLogo.png",
    "Address": "976 Saddleback Mountain Rd, Rangeley, ME 04970",
    "Latitude": 44.946217,
    "Longitude": -70.527082,
    "Website": "http://www.saddlebackmaine.com/"
  },
  {
    "Name": "Sandia Peak",
    "Summit_Height": 10377,
    "Base_Height": 8677,
    "Number_of_Trails": 39,
    "Number_of_Lifts": 5,
    "Number_of_Parks": 1,
    "Trail_Map": "SandiaTrails.jpg",
    "Photos": "",
    "Logo": "SandiaPeakLogo.png",
    "Address": "11 NM-536, Sandia Park, NM 87047",
    "Latitude": 35.207048,
    "Longitude": -106.413376,
    "Website": "http://www.sandiapeak.com/"
  },
  {
    "Name": "Sapphire Valley",
    "Summit_Height": 3450,
    "Base_Height": 3200,
    "Number_of_Trails": 2,
    "Number_of_Lifts": 3,
    "Number_of_Parks": 1,
    "Trail_Map": "SapphireValleyTrails.jpg",
    "Photos": "",
    "Logo": "SapphireValleyLogo.jpg",
    "Address": "207 Saphire Valley Rd, Sapphire, NC 28774",
    "Latitude": 35.124311,
    "Longitude": -83.058806,
    "Website": "http://www.sapphirevalley.com/"
  },
  {
    "Name": "Schweitzer",
    "Summit_Height": 6400,
    "Base_Height": 4000,
    "Number_of_Trails": 92,
    "Number_of_Lifts": 9,
    "Number_of_Parks": 3,
    "Trail_Map": "SchweitzerTrails.jpg",
    "Photos": "",
    "Logo": "SchweitzerLogo.jpeg",
    "Address": "10000 Schweitzer Mountain Road, Selkirk Lodge, Sandpoint, ID 83864",
    "Latitude": 48.367287,
    "Longitude": -116.623398,
    "Website": "http://www.schweitzer.com/"
  },
  {
    "Name": "Seven Oaks",
    "Summit_Height": 975,
    "Base_Height": 800,
    "Number_of_Trails": 11,
    "Number_of_Lifts": 4,
    "Number_of_Parks": 3,
    "Trail_Map": "SevenOaksTrails.jpg",
    "Photos": "",
    "Logo": "SevenOaksLogo.png",
    "Address": "1086 222nd Dr, Boone, IA 50036",
    "Latitude": 42.030699,
    "Longitude": -93.953381,
    "Website": "http://www.sevenoaksrec.com/"
  },
  {
    "Name": "Seven Springs",
    "Summit_Height": 2993,
    "Base_Height": 2240,
    "Number_of_Trails": 33,
    "Number_of_Lifts": 14,
    "Number_of_Parks": 7,
    "Trail_Map": "SevenSpringsTrails.jpg",
    "Photos": "",
    "Logo": "SevenSpringsLogo.png",
    "Address": "777 Water Wheel Dr, Champion, PA 15622",
    "Latitude": 40.022895,
    "Longitude": -79.298742,
    "Website": "http://www.7springs.com/"
  },
  {
    "Name": "Shanty Creek Resort",
    "Summit_Height": 1125,
    "Base_Height": 675,
    "Number_of_Trails": 41,
    "Number_of_Lifts": 6,
    "Number_of_Parks": 4,
    "Trail_Map": "ShantyCreekTrails.jpg",
    "Photos": "",
    "Logo": "ShantyCreekLogo.jpeg",
    "Address": "5780 Shanty Creek Road, Bellaire, MI 49615",
    "Latitude": 44.94865,
    "Longitude": -85.185293,
    "Website": "http://www.shantycreek.com/"
  },
  {
    "Name": "Shawnee Mountain Ski Area",
    "Summit_Height": 1350,
    "Base_Height": 650,
    "Number_of_Trails": 23,
    "Number_of_Lifts": 9,
    "Number_of_Parks": 2,
    "Trail_Map": "ShawneeTrails.jpg",
    "Photos": "",
    "Logo": "ShawneeLogo.jpeg",
    "Address": "401 Hollow Rd, East Stroudsburg, PA 18301",
    "Latitude": 41.039604,
    "Longitude": -75.085288,
    "Website": "http://www.shawneemt.com/index.html"
  },
  {
    "Name": "Shawnee Peak",
    "Summit_Height": 1900,
    "Base_Height": 600,
    "Number_of_Trails": 43,
    "Number_of_Lifts": 3,
    "Number_of_Parks": 5,
    "Trail_Map": "ShawneePeakTrails.jpg",
    "Photos": "",
    "Logo": "ShawneePeakLogo.png",
    "Address": "119 Mountain Rd, Bridgton, ME 04009",
    "Latitude": 44.058944,
    "Longitude": -70.815423,
    "Website": "http://www.shawneepeak.com/"
  },
  {
    "Name": "Showdown Montana",
    "Summit_Height": 8200,
    "Base_Height": 6800,
    "Number_of_Trails": 36,
    "Number_of_Lifts": 4,
    "Number_of_Parks": 1,
    "Trail_Map": "ShowdownLogo.png",
    "Photos": "",
    "Logo": "ShowdownLogo.png",
    "Address": "2850 U.S. 89, Neihart, MT 59465",
    "Latitude": 46.903133,
    "Longitude": -110.68973,
    "Website": "http://www.showdownmontana.com/"
  },
  {
    "Name": "Sierra-at-Tahoe",
    "Summit_Height": 8852,
    "Base_Height": 6639,
    "Number_of_Trails": 48,
    "Number_of_Lifts": 14,
    "Number_of_Parks": 8,
    "Trail_Map": "SierraAtTahoeTrails.jpg",
    "Photos": "",
    "Logo": "SierraAtTahoeLogo.png",
    "Address": "1111 Sierra-At-Tahoe Rd, Twin Bridges, CA 95735",
    "Latitude": 38.79935,
    "Longitude": -120.080906,
    "Website": "https://www.sierraattahoe.com/"
  },
  {
    "Name": "Silver Mountain",
    "Summit_Height": 6300,
    "Base_Height": 4100,
    "Number_of_Trails": 80,
    "Number_of_Lifts": 7,
    "Number_of_Parks": 2,
    "Trail_Map": "SilverMountainTrails.jpg",
    "Photos": "",
    "Logo": "SilverMountainLogo.png",
    "Address": "914 Sierra Nevada, Kellogg, ID 83837",
    "Latitude": 47.501432,
    "Longitude": -116.120561,
    "Website": "http://www.silvermt.com/"
  },
  {
    "Name": "Silverton Mountain",
    "Summit_Height": 13487,
    "Base_Height": 10400,
    "Number_of_Trails": 69,
    "Number_of_Lifts": 1,
    "Number_of_Parks": "none",
    "Trail_Map": "SilvertonTrails.jpg",
    "Photos": "",
    "Logo": "SilvertonLogo.jpg",
    "Address": "6226 State Hwy 110, Silverton, CO 81433",
    "Latitude": 37.890617,
    "Longitude": -107.651418,
    "Website": "http://silvertonmountain.com/"
  },
  {
    "Name": "Sipapu Ski Resort",
    "Summit_Height": 9254,
    "Base_Height": 8200,
    "Number_of_Trails": 42,
    "Number_of_Lifts": 6,
    "Number_of_Parks": 4,
    "Trail_Map": "SipapuTrails.jpg",
    "Photos": "",
    "Logo": "SipapuLogo.jpeg",
    "Address": "5224 NM-518, Vadito, NM 87579",
    "Latitude": 36.154203,
    "Longitude": -105.548098,
    "Website": "https://www.sipapunm.com/"
  },
  {
    "Name": "Ski Apache",
    "Summit_Height": 11500,
    "Base_Height": 9600,
    "Number_of_Trails": 55,
    "Number_of_Lifts": 11,
    "Number_of_Parks": 3,
    "Trail_Map": "SkiApacheTrails.jpg",
    "Photos": "",
    "Logo": "SkiApacheLogo.png",
    "Address": "1286 Ski Run Rd, Alto, NM 88312",
    "Latitude": 33.399126,
    "Longitude": -105.699743,
    "Website": "http://www.skiapache.com/"
  },